Village,Latitude,Longitude,Elevation_m,Population,Population_Source,Place_Type,Nearest_Facility_Name,Nearest_Facility_Type,Nearest_Facility_Latitude,Nearest_Facility_Longitude,Distance_Nearest_Facility_km,Nearest_Facility_Confidence,Dist_Zipline_km,Is_Rural,Hub_ID,Distance_Hub_km,Hub_Latitude,Hub_Longitude,Covered
1000 Acre,6.5085577,-2.592602,227.0,530.0,WorldPop_2020,village/town/hamlet,Asarekrom CHPS,Clinic,6.5762288,-2.6390223,9.11,0.81,38.04244336232272,True,12,51.88,6.964500993939394,-2.4931057818181817,True
A.G.A,6.1985302,-1.6641394,223.0,12632.0,WorldPop_2020,suburb,Unnamed Hospital,Hospital,6.203002,-1.6847518,2.33,0.33,90.81157749160351,False,8,58.1,6.714017028571429,-1.578396487755102,True
AB Bokazo,5.0090926,-2.4365667,26.0,1698.0,WorldPop_2020,village/town/hamlet,Kamgbunli Clinic,Clinic,4.9771869,-2.415183,4.27,0.81,129.8144834886286,True,9,73.56,5.670289039344262,-2.458074481967213,True
ABREWANKOR,8.3496438,0.5032843,231.0,739.0,WorldPop_2020,village/town/hamlet,Keri CHPS Compound,Clinic,8.3863316,0.5275486,4.88,0.53,83.38403727490352,True,10,32.95,8.31955012745098,0.20536231960784324,True
Aaba,10.4326537,-1.1046302,145.0,1262.0,WorldPop_2020,village/town/hamlet,Kpasinkpe Health Centre,Clinic,10.4471711,-1.0469888,6.51,0.53,34.30963450192497,True,11,46.64,10.73173961451613,-0.8055273370967743,True
Abaam,6.2175323,-0.8315625,181.0,3744.0,WorldPop_2020,village/town/hamlet,Abodom CHPS Compound,Clinic,6.1642186,-0.8186405,6.1,0.53,42.67982480005406,True,13,40.52,6.314441660273973,-0.4781223835616439,True
Abaasa,5.3652643,-0.9475264,97.0,7576.0,WorldPop_2020,village/town/hamlet,GHS,Clinic,5.3833164,-0.9250126,3.2,0.92,107.97817494738096,True,2,68.66,5.250318833333333,-1.5568655866666665,True
Abaasa,5.5880185,-1.6215375,70.0,359.0,WorldPop_2020,village/town/hamlet,Drug Store,Pharmacy,5.6137342,-1.5527295,8.13,0.92,115.95943053924732,True,2,38.23,5.250318833333333,-1.5568655866666665,True
Abaase,6.5141918,-1.4426229,134.0,299.0,WorldPop_2020,village/town/hamlet,Richard Fowler Catholic Clinic,Clinic,6.4679724,-1.4723001,6.1,0.53,60.08530359955966,True,8,26.81,6.714017028571429,-1.578396487755102,True
Abaasua,6.9774279,-1.3994698,346.0,429.0,WorldPop_2020,village/town/hamlet,Nsuta Polyclinic,Clinic,7.0083969,-1.3816722,3.96,0.91,8.662103863654185,True,8,35.33,6.714017028571429,-1.578396487755102,True
Ababio,5.7654818,-0.6030856,95.0,2108.0,WorldPop_2020,village/town/hamlet,Essaso CHPS compound,Clinic,5.7645167,-0.6977078,10.47,0.81,51.37576668067877,True,7,41.07,5.636796764853556,-0.2551691866108785,True
Abagamia,10.9850817,-0.7567267,237.0,282.0,WorldPop_2020,village/town/hamlet,Namoo Clinic,Clinic,10.9686297,-0.8477577,10.1,0.53,70.76498020047495,True,11,28.67,10.73173961451613,-0.8055273370967743,True
Abagyi Nakrom,6.5147149,-2.9600789,189.0,299.0,WorldPop_2020,village/town/hamlet,CHPS Compound,Clinic,6.4507913,-2.9733155,7.26,0.81,64.20698139756426,True,12,71.84,6.964500993939394,-2.4931057818181817,True
Abakabon,5.7254582,-0.7780257,138.0,399.0,WorldPop_2020,isolated_dwelling,Essaso CHPS compound,Clinic,5.7645167,-0.6977078,9.89,0.81,64.30529560235628,True,7,58.69,5.636796764853556,-0.2551691866108785,True
Abakoase,6.4193945,-0.6314291,186.0,3011.0,WorldPop_2020,village/town/hamlet,New Jejeti Health Centre,Hospital,6.4759191,-0.6539157,6.76,0.53,31.53292278212837,True,13,20.57,6.314441660273973,-0.4781223835616439,True
Abakrampa,5.2482441,-1.234513,90.0,5370.0,WorldPop_2020,village/town/hamlet,Hayford Dorothy,Pharmacy,5.2450265,-1.2480883,1.55,0.67,136.98580862256483,True,2,35.69,5.250318833333333,-1.5568655866666665,True
Abama,7.6788799,-1.1889994,133.0,635.0,WorldPop_2020,village/town/hamlet,Kumfia Healthcare,Clinic,7.779132,-1.2251245,11.84,0.81,72.379646900063,True,1,78.62,7.707216,-1.9018804730769232,True
Abamkrom,5.6912482,-0.6214142,80.0,1358.0,WorldPop_2020,village/town/hamlet,Essaso CHPS compound,Clinic,5.7645167,-0.6977078,11.73,0.81,59.79426904639723,True,7,40.98,5.636796764853556,-0.2551691866108785,True
Abamkrom,5.7391145,-0.6463695,122.0,1509.0,WorldPop_2020,village/town/hamlet,Essaso CHPS compound,Clinic,5.7645167,-0.6977078,6.34,0.81,55.85163742453376,True,7,44.76,5.636796764853556,-0.2551691866108785,True
Abandze,5.1946711,-1.0941657,11.0,6667.0,WorldPop_2020,village/town/hamlet,John B. Bawah,Pharmacy,5.176745,-1.1215647,3.63,0.81,132.58232907201267,True,2,51.61,5.250318833333333,-1.5568655866666665,True
Abanfua,7.6858844,-2.2902672,246.0,62.0,WorldPop_2020,village/town/hamlet,Tiadene chips compound,Clinic,7.6708923,-2.4085644,13.14,0.81,121.87678461073072,True,1,42.86,7.707216,-1.9018804730769232,True
Abankwakurom,6.9963624,-0.101712,197.0,345.0,WorldPop_2020,village/town/hamlet,Adukrom CHPs Compound,CHPS,7.0140064,-0.0952629,2.09,0.67,63.30591772088093,True,0,51.06,7.010195706040268,0.36073386979865807,True
Abansfara Aboano,5.2121925,-0.8399713,14.0,2034.0,WorldPop_2020,village/town/hamlet,Narkwa Polyclinic,Clinic,5.2076954,-0.9392389,11.0,0.77,117.9006703739625,True,2,79.5,5.250318833333333,-1.5568655866666665,True
Abansu,5.7069336,-0.2801889,57.0,7205.0,WorldPop_2020,village/town/hamlet,Anglican Medical Center,Clinic,5.6972601,-0.2811363,1.08,0.81,57.824223471635854,True,7,8.28,5.636796764853556,-0.2551691866108785,True
Abase,5.4594005,-1.2292135,128.0,793.0,WorldPop_2020,village/town/hamlet,Hayford Dorothy,Pharmacy,5.2450265,-1.2480883,23.93,0.67,119.48319851835286,True,2,43.09,5.250318833333333,-1.5568655866666665,True
Abasi,6.8952482,-1.2357162,365.0,2021.0,WorldPop_2020,village/town/hamlet,Bodomase Clinic,Hospital,6.8898446,-1.2519242,1.89,0.92,24.168548478408088,True,8,42.87,6.714017028571429,-1.578396487755102,True
Abasua,6.7236772,-1.9357887,180.0,669.0,WorldPop_2020,village/town/hamlet,Unnamed Pharmacy,Pharmacy,6.6599097,-1.8423071,12.52,0.61,70.97464446082279,True,8,39.48,6.714017028571429,-1.578396487755102,True
Abawdikro,7.609216,-1.9605753,391.0,6059.0,WorldPop_2020,suburb,Holy Family Hospital - Techiman,Hospital,7.5920208,-1.9396317,3.0,0.53,88.2912767518742,False,1,12.67,7.707216,-1.9018804730769232,True
Abeadze Dominase,5.3498444,-1.088851,63.0,3094.0,WorldPop_2020,village/town/hamlet,Stanford Health,Hospital,5.2651828,-1.0203137,12.09,0.81,118.15817628072108,True,2,52.99,5.250318833333333,-1.5568655866666665,True
Abease,7.9585737,-1.1802827,138.0,4572.0,WorldPop_2020,village/town/hamlet,Kumfia Healthcare,Clinic,7.7794723,-1.2247689,20.51,0.81,102.51785444376551,True,1,84.26,7.707216,-1.9018804730769232,False
Abebresekrom,6.7698888,-2.5347331,189.0,407.0,WorldPop_2020,isolated_dwelling,Cross Care Clinic,Clinic,6.7913022,-2.5173483,3.06,0.53,65.25069999038867,True,12,22.12,6.964500993939394,-2.4931057818181817,True
Abedwum,6.3009396,-1.6586888,216.0,1512.0,WorldPop_2020,village/town/hamlet,D. B. Twumasi Chemicals OTC Medicine,Pharmacy,6.2132762,-1.6884994,10.29,0.81,88.64112592918707,True,8,46.78,6.714017028571429,-1.578396487755102,True
Abeka,5.5999841,-0.2418328,39.0,82810.0,WorldPop_2020,suburb,Nesta,Pharmacy,5.6028609,-0.2419394,0.32,0.82,70.38897778585783,False,7,4.35,5.636796764853556,-0.2551691866108785,True
Abekope,5.7690723,0.0383914,26.0,3050.0,WorldPop_2020,suburb,Voek Pharmacy,Pharmacy,5.7617984,0.0519873,1.71,0.81,71.9588366274147,False,7,35.66,5.636796764853556,-0.2551691866108785,True
Abekwai,7.8463971,-2.1670998,188.0,234.0,WorldPop_2020,village/town/hamlet,Methodist Hospital Wenchi,Hospital,7.7380768,-2.1113099,13.52,0.53,122.93756197899782,True,1,33.07,7.707216,-1.9018804730769232,True
Abelenkpe,5.6080036,-0.2173342,28.0,69992.0,WorldPop_2020,suburb,Citadel Clinic,Doctor,5.6041598,-0.218911,0.46,0.81,70.47913639368649,False,7,5.27,5.636796764853556,-0.2551691866108785,True
Aben,5.4564074,-1.1914212,93.0,378.0,WorldPop_2020,village/town/hamlet,Hayford Dorothy,Pharmacy,5.2450265,-1.2480883,24.33,0.67,116.71518354791942,True,2,46.5,5.250318833333333,-1.5568655866666665,True
Abena Akokrom,7.0314271,-2.5175493,243.0,488.0,WorldPop_2020,village/town/hamlet,Apenamadi chips compound,Clinic,6.9264342,-2.4563998,13.49,0.81,94.00835804834604,True,12,7.92,6.964500993939394,-2.4931057818181817,True
Abenaboma,6.7194899,-0.5384159,87.0,383.0,WorldPop_2020,village/town/hamlet,st joseph's clinic an maternity home,Clinic,6.6519796,-0.6662393,15.99,0.83,58.05413500190141,True,13,45.53,6.314441660273973,-0.4781223835616439,True
Abenase,6.007133,-1.0354262,136.0,7731.0,WorldPop_2020,village/town/hamlet,School Clinic,Clinic,5.9697837,-0.9931264,6.26,0.53,68.71497426217745,True,13,70.45,6.314441660273973,-0.4781223835616439,True
Abenase,6.5679025,-0.7789242,230.0,7547.0,WorldPop_2020,village/town/hamlet,Roman Catholic Hospital,Hospital,6.5466382,-0.7733547,2.44,0.53,54.64535857025372,True,13,43.58,6.314441660273973,-0.4781223835616439,True
Abenase,6.6864131,-1.4388088,259.0,3716.0,WorldPop_2020,village/town/hamlet,Roseth community eye care,Hospital,6.7176919,-1.4656783,4.57,0.82,41.13098920399697,True,8,15.72,6.714017028571429,-1.578396487755102,True
Abenaso,6.2175255,-0.7431893,169.0,1588.0,WorldPop_2020,village/town/hamlet,Abomosu Clinic,Hospital,6.3001218,-0.7342024,9.24,0.81,32.9088460271176,True,13,31.22,6.314441660273973,-0.4781223835616439,True
Abenawia,6.0089871,-0.1419613,175.0,709.0,WorldPop_2020,village/town/hamlet,Daniel A. Tetteh ( Awokye Drug Store),Pharmacy,6.0164575,-0.0778634,7.14,0.81,39.912842209083,True,7,43.24,5.636796764853556,-0.2551691866108785,True
Abenayo,5.8746635,-0.5464304,173.0,793.0,WorldPop_2020,village/town/hamlet,Odumkyere Darmang Health Centre,Clinic,5.8688274,-0.5422364,0.8,0.63,37.93550344473631,True,7,41.69,5.636796764853556,-0.2551691866108785,True
Abene,6.7026898,-0.785397,173.0,807.0,WorldPop_2020,village/town/hamlet,Nat Herbal Clinic,Clinic,6.6342427,-0.7403711,9.09,0.92,66.82201176480423,True,13,54.92,6.314441660273973,-0.4781223835616439,True
Abenoa,7.0971715,-0.9365834,140.0,491.0,WorldPop_2020,village/town/hamlet,Agogo Presbyterian hospital,Hospital,6.7965698,-1.0855078,37.25,0.81,49.81909680467727,True,8,82.67,6.714017028571429,-1.578396487755102,False
Abepotia,6.5417855,-0.7910828,221.0,4664.0,WorldPop_2020,village/town/hamlet,Roman Catholic Hospital,Hospital,6.5466382,-0.7733547,2.03,0.53,53.49837705790825,True,13,42.84,6.314441660273973,-0.4781223835616439,True
Aberenkwo Junction,8.3119085,0.4817759,202.0,525.0,WorldPop_2020,village/town/hamlet,Medical Village Mortuary,Hospital,8.2595616,0.5110961,6.66,0.53,78.72426493073846,True,10,30.42,8.31955012745098,0.20536231960784324,True
Aberenwanko Ananfo,6.1251563,-0.184131,167.0,674.0,WorldPop_2020,village/town/hamlet,EverCare Pharmacy,Pharmacy,6.1284523,-0.2123742,3.14,0.81,30.246907482428227,True,13,38.72,6.314441660273973,-0.4781223835616439,True
Aberfor,5.5910817,-0.5485057,97.0,853.0,WorldPop_2020,village/town/hamlet,Ayiresu Chip Compound,Hospital,5.6211389,-0.5218935,4.45,0.63,68.57860820461147,True,7,32.86,5.636796764853556,-0.2551691866108785,True
Abertima,6.1294704,-0.1132642,149.0,388.0,WorldPop_2020,village/town/hamlet,Okra Kwadwo Health Centre,Clinic,6.1089919,-0.1057473,2.42,0.63,37.7286191484446,True,13,45.27,6.314441660273973,-0.4781223835616439,True
Abesem,6.2235211,-0.6255515,229.0,778.0,WorldPop_2020,village/town/hamlet,Kibi Government Hospital,Hospital,6.1670503,-0.5552595,9.99,0.53,19.98193034708381,True,13,19.18,6.314441660273973,-0.4781223835616439,True
Abesewa,6.4236146,-1.5556316,214.0,1744.0,WorldPop_2020,village/town/hamlet,Ahwenie Memorial Hospital,Hospital,6.4549977,-1.5704577,3.86,0.53,72.2601980956135,True,8,32.39,6.714017028571429,-1.578396487755102,True
Abesewa,7.0429425,-2.0223312,284.0,1641.0,WorldPop_2020,village/town/hamlet,Bechem Government Hospital,Hospital,7.0875431,-2.0304926,5.04,0.53,70.37108618503636,True,12,52.68,6.964500993939394,-2.4931057818181817,True
Abesewase,6.773378,-1.3831642,289.0,523.0,WorldPop_2020,village/town/hamlet,SICK,Hospital,6.8126582,-1.4265516,6.48,0.53,31.090457622976192,True,8,22.55,6.714017028571429,-1.578396487755102,True
Abesey,5.7145239,-0.2718151,47.0,5411.0,WorldPop_2020,village/town/hamlet,MEDIMAFO Herbal Hope,Hospital,5.7180502,-0.2824956,1.25,0.81,57.33452170930702,True,7,8.84,5.636796764853556,-0.2551691866108785,True
Abesim,6.6608645,-2.4917024,197.0,507.0,WorldPop_2020,isolated_dwelling,Goemat Pharmacy,Pharmacy,6.6927098,-2.4422716,6.51,0.81,52.96274333252263,True,12,33.76,6.964500993939394,-2.4931057818181817,True
Abesim,7.287233,-2.2693527,277.0,3962.0,WorldPop_2020,suburb,THOMAS AND THOMAS,Clinic,7.3023932,-2.2951265,3.3,0.53,100.96133678784476,False,12,43.56,6.964500993939394,-2.4931057818181817,True
Abesim-Nkran No.1,7.2727448,-2.3123015,242.0,1194.0,WorldPop_2020,village/town/hamlet,THOMAS AND THOMAS,Clinic,7.3023932,-2.2951265,3.8,0.53,105.17777308821395,True,12,39.66,6.964500993939394,-2.4931057818181817,True
Abesle,6.4262587,-0.2231893,355.0,732.0,WorldPop_2020,village/town/hamlet,Asesewa Government Hospital,Hospital,6.4017208,-0.146631,8.89,0.95,34.93013903097006,True,13,30.79,6.314441660273973,-0.4781223835616439,True
Abesre,6.4149634,-0.2164231,353.0,695.0,WorldPop_2020,village/town/hamlet,Asesewa Government Hospital,Hospital,6.4017208,-0.146631,7.85,0.95,34.603954785544005,True,13,31.01,6.314441660273973,-0.4781223835616439,True
Abetema,5.8605062,-0.2737087,80.0,408.0,WorldPop_2020,village/town/hamlet,Ever Care Pharmacy,Pharmacy,5.8102892,-0.3351267,8.79,0.81,42.38722851441651,True,7,24.96,5.636796764853556,-0.2551691866108785,True
Abetenim,6.7961873,-1.3837553,308.0,376.0,WorldPop_2020,village/town/hamlet,SICK,Hospital,6.8126582,-1.4265516,5.07,0.53,28.567561270145426,True,8,23.35,6.714017028571429,-1.578396487755102,True
Abetifi,6.672433,-0.743845,600.0,5631.0,WorldPop_2020,village/town/hamlet,Nat Herbal Clinic,Clinic,6.6342427,-0.7403711,4.26,0.92,61.50293176769205,True,13,49.46,6.314441660273973,-0.4781223835616439,True
Abetima,6.3066075,-0.1077068,221.0,412.0,WorldPop_2020,village/town/hamlet,Asesewa Government Hospital,Hospital,6.4017208,-0.146631,11.42,0.95,36.030850426969785,True,13,40.95,6.314441660273973,-0.4781223835616439,True
Abeyee,5.1438159,-1.4792578,45.0,1490.0,WorldPop_2020,village/town/hamlet,Kissi Health Centre,Hospital,5.0871197,-1.5060483,6.97,0.68,159.94259373878123,True,2,14.63,5.250318833333333,-1.5568655866666665,True
Abi,7.4696208,-2.6380881,342.0,447.0,WorldPop_2020,village/town/hamlet,Dr. Larbi Clinic,Hospital,7.4438905,-2.5935659,5.68,0.63,143.406392642679,True,12,58.4,6.964500993939394,-2.4931057818181817,True
Abiadi Eshiem,5.4287555,-0.8718567,34.0,1191.0,WorldPop_2020,village/town/hamlet,GHS,Clinic,5.3833164,-0.9250126,7.76,0.92,97.71112805958468,True,7,72.07,5.636796764853556,-0.2551691866108785,True
Abidjan,6.9441491,-2.7859784,231.0,666.0,WorldPop_2020,village/town/hamlet,Ahmadiyya,Clinic,6.8940491,-2.5651706,25.0,0.53,90.6402530520376,True,12,32.41,6.964500993939394,-2.4931057818181817,True
Abira,6.7715525,-1.4937285,303.0,1370.0,WorldPop_2020,village/town/hamlet,George & Angelina,Clinic,6.7433264,-1.458069,5.04,0.81,33.49935874806998,True,8,11.33,6.714017028571429,-1.578396487755102,True
Abiram,6.3852945,-1.9719586,185.0,1249.0,WorldPop_2020,village/town/hamlet,Eno Serwaah pharmacy,Pharmacy,6.2901832,-1.9712874,10.58,0.92,61.00868713229372,True,8,56.8,6.714017028571429,-1.578396487755102,True
Abirem,6.3016964,-1.0066223,145.0,2558.0,WorldPop_2020,village/town/hamlet,Tiawiah CHPS Compound,Clinic,6.4138806,-0.8676785,19.78,0.91,62.97619202915949,True,13,58.43,6.314441660273973,-0.4781223835616439,True
Abirem,6.7450111,-1.5511494,294.0,3376.0,WorldPop_2020,village/town/hamlet,Garden City Hospital,Hospital,6.7114132,-1.56792,4.17,0.53,38.81506713183494,True,8,4.58,6.714017028571429,-1.578396487755102,True
Abirikasu,7.4912913,-2.8333578,269.0,2200.0,WorldPop_2020,village/town/hamlet,Nkyenkyemam CHPS Compound,Clinic,7.4817648,-2.7851598,5.42,0.81,149.84095449573684,True,12,69.57,6.964500993939394,-2.4931057818181817,True
Abiriw,5.9795454,-0.0891667,467.0,11096.0,GeoNames/OSM,village/town/hamlet,Daniel A. Tetteh ( Awokye Drug Store),Pharmacy,6.0164575,-0.0778634,4.29,0.81,46.59374838070565,True,7,42.31,5.636796764853556,-0.2551691866108785,True
Abisu,6.6532504,-0.5436516,253.0,259.0,WorldPop_2020,village/town/hamlet,st joseph's clinic an maternity home,Clinic,6.6519796,-0.6662393,13.54,0.83,50.97847670917564,True,13,38.36,6.314441660273973,-0.4781223835616439,True
Abisu,7.539309,-2.3917928,256.0,821.0,Imputed,village/town/hamlet,Dagadu CHPS Compound,Health_Post,7.6114215,-2.3864246,8.04,0.53,123.37742136924192,True,1,57.13,7.707216,-1.9018804730769232,True
Abisu No.1,6.6256624,-0.5685934,342.0,288.0,WorldPop_2020,village/town/hamlet,st joseph's clinic an maternity home,Clinic,6.6519796,-0.6662393,11.17,0.83,48.6949444625602,True,13,36.02,6.314441660273973,-0.4781223835616439,True
Abisu No.2,6.6202166,-0.5598199,312.0,235.0,WorldPop_2020,village/town/hamlet,st joseph's clinic an maternity home,Clinic,6.6519796,-0.6662393,12.27,0.83,47.85269996850238,True,13,35.18,6.314441660273973,-0.4781223835616439,True
Abladjei,5.7100153,-0.2057269,60.0,8809.0,WorldPop_2020,suburb,Medcare Plus Clinic,Clinic,5.7130107,-0.2057906,0.33,0.81,60.64198357298935,False,7,9.81,5.636796764853556,-0.2551691866108785,True
Ablekuma,5.6279342,-0.3135003,41.0,10542.0,WorldPop_2020,village/town/hamlet,Novomed,Pharmacy,5.6227053,-0.3018546,1.41,0.82,65.23743268030526,True,7,6.53,5.636796764853556,-0.2551691866108785,True
Ablekuma Newtown,5.6373022,-0.3137724,35.0,9749.0,WorldPop_2020,suburb,ODUMAN POLYCLINIC,Hospital,5.6421114,-0.3306611,1.94,0.53,64.22160252286788,False,7,6.49,5.636796764853556,-0.2551691866108785,True
Ablornu,6.3497457,0.6375725,50.0,515.0,WorldPop_2020,village/town/hamlet,Adaklu Ablornu CHPs Compound,CHPS,6.3488205,0.6367137,0.14,0.67,54.749726323519,True,4,21.41,6.159094553846154,0.6649345371794871,True
Aboabo,5.6557442,-1.6210359,97.0,1288.0,WorldPop_2020,village/town/hamlet,Mmaa Baasa CHPS Compound,Clinic,5.6520981,-1.5721956,5.42,0.92,111.92991309514431,True,2,45.64,5.250318833333333,-1.5568655866666665,True
Aboabo,5.9337346,-0.9513381,137.0,9792.0,WorldPop_2020,village/town/hamlet,Oda Government Hospital,Hospital,5.9284588,-0.9857572,3.85,0.53,63.33721623185805,True,13,67.3,6.314441660273973,-0.4781223835616439,True
Aboabo,6.1185735,-0.2350455,209.0,4522.0,WorldPop_2020,village/town/hamlet,Aboabo Drug Store,Pharmacy,6.1177538,-0.2347289,0.1,0.81,25.15440366931297,True,13,34.59,6.314441660273973,-0.4781223835616439,True
Aboabo,6.2097883,-1.3608106,173.0,949.0,WorldPop_2020,village/town/hamlet,SDA Hospital,Hospital,6.19789,-1.63915,30.8,0.81,93.4557991076616,True,8,61.0,6.714017028571429,-1.578396487755102,True
Aboabo,6.3667325,-1.6698575,188.0,674.0,WorldPop_2020,village/town/hamlet,Bekwai Matenity,Hospital,6.4551686,-1.5786467,14.08,0.63,82.30129328395581,True,8,39.92,6.714017028571429,-1.578396487755102,True
Aboabo,6.4467378,-2.3559167,265.0,376.0,WorldPop_2020,village/town/hamlet,Bibiani Government Hospital,Hospital,6.4564802,-2.3230746,3.79,0.63,32.55074840522468,True,12,59.53,6.964500993939394,-2.4931057818181817,True
Aboabo,6.5862346,-0.4380128,445.0,262.0,WorldPop_2020,village/town/hamlet,Asaaseboma CHPs Compound,Health_Post,6.7453453,-0.3607664,19.64,0.67,42.424015191820935,True,13,30.55,6.314441660273973,-0.4781223835616439,True
Aboabo,6.6989717,-1.5978764,271.0,90485.0,WorldPop_2020,suburb,Nako,Pharmacy,6.7003567,-1.5949466,0.36,0.81,45.79154729107732,False,8,2.73,6.714017028571429,-1.578396487755102,True
Aboabo Camp,5.5684236,-1.3855607,129.0,352.0,WorldPop_2020,village/town/hamlet,Drug Store,Pharmacy,5.6085744,-1.5371472,17.36,0.92,125.4602995183588,True,2,40.13,5.250318833333333,-1.5568655866666665,True
Aboabo No.1,5.9372674,-0.2361631,96.0,997.0,WorldPop_2020,village/town/hamlet,Tetteh Quarshie Hospital,Hospital,5.9216374,-0.1323741,11.61,0.53,37.44628521536019,True,7,33.48,5.636796764853556,-0.2551691866108785,True
Aboabo No.2,5.9370647,-0.2412701,91.0,994.0,WorldPop_2020,village/town/hamlet,Tetteh Quarshie Hospital,Hospital,5.9216374,-0.1323741,12.17,0.53,37.115644291316926,True,7,33.42,5.636796764853556,-0.2551691866108785,True
Aboabo No.2,6.2217537,-1.3549957,182.0,2111.0,WorldPop_2020,village/town/hamlet,Richard Fowler Catholic Clinic,Clinic,6.4679724,-1.4723001,30.29,0.53,92.15444424460212,True,8,60.05,6.714017028571429,-1.578396487755102,True
Aboabo No.2,7.2090449,-2.8078846,298.0,4261.0,WorldPop_2020,village/town/hamlet,Mw,Clinic,7.2206418,-2.6417699,18.37,0.81,119.07507146245688,True,12,44.11,6.964500993939394,-2.4931057818181817,True
Aboabo No.4,7.1976708,-2.8072959,281.0,3493.0,WorldPop_2020,village/town/hamlet,Mw,Clinic,7.2206418,-2.6417699,18.44,0.81,117.85624246665064,True,12,43.29,6.964500993939394,-2.4931057818181817,True
Aboabo Odumase,5.9955856,-0.3992093,129.0,624.0,WorldPop_2020,village/town/hamlet,Suhum Hospital,Hospital,6.0380137,-0.4446668,6.89,0.63,23.4873380765636,True,13,36.51,6.314441660273973,-0.4781223835616439,True
Aboabo Tetekaso,6.5689859,-1.9049066,268.0,1144.0,WorldPop_2020,village/town/hamlet,Unnamed Pharmacy,Pharmacy,6.6599097,-1.8423071,12.25,0.61,77.09295880253072,True,8,39.5,6.714017028571429,-1.578396487755102,True
Aboabo-Sonko,5.9911041,-0.504832,252.0,306.0,WorldPop_2020,village/town/hamlet,Suhum Hospital,Hospital,6.0380137,-0.4446668,8.45,0.63,24.283109771507466,True,13,36.07,6.314441660273973,-0.4781223835616439,True
Aboabogya,6.5483704,-2.2732469,197.0,376.0,WorldPop_2020,village/town/hamlet,DAKS Medical Center,Hospital,6.4566489,-2.3018646,10.68,0.53,46.77428211717059,True,12,52.25,6.964500993939394,-2.4931057818181817,True
Aboabogya,6.8405314,-1.6102758,306.0,413.0,WorldPop_2020,village/town/hamlet,Ashan,Hospital,6.8431504,-1.6487814,4.26,0.53,34.30639480495199,True,8,14.5,6.714017028571429,-1.578396487755102,True
Aboabokese,6.5933115,-1.624158,227.0,4178.0,WorldPop_2020,village/town/hamlet,Genak Pharmacy,Pharmacy,6.5890471,-1.6249104,0.48,0.81,57.42129706189061,True,8,14.34,6.714017028571429,-1.578396487755102,True
Aboaboso,6.6396071,-2.5488335,227.0,480.0,WorldPop_2020,village/town/hamlet,Akrodie Health Centre,Hospital,6.6950068,-2.5569091,6.22,0.53,51.10392289911248,True,12,36.65,6.964500993939394,-2.4931057818181817,True
Aboabota,6.6201899,-1.6444087,248.0,9783.0,WorldPop_2020,village/town/hamlet,Gary Marvin Memorial Hospital,Hospital,6.604927,-1.6603731,2.45,0.53,55.90974571707946,True,8,12.73,6.714017028571429,-1.578396487755102,True
Aboade,4.8946087,-1.9392318,31.0,4241.0,WorldPop_2020,village/town/hamlet,Gemar Hospital,Clinic,4.8904665,-1.9548466,1.79,0.81,154.65484560548438,True,2,57.95,5.250318833333333,-1.5568655866666665,True
Aboadze,4.972723,-1.650084,6.0,17233.0,WorldPop_2020,village/town/hamlet,Aboadze Clinic,Clinic,4.9733344,-1.6500323,0.07,0.53,162.57230689235112,True,2,32.55,5.250318833333333,-1.5568655866666665,True
Aboagyaa,6.9886472,-2.5616464,251.0,208.0,WorldPop_2020,village/town/hamlet,Ahmadiyya,Clinic,6.8940491,-2.5651706,10.53,0.53,89.61326807787844,True,12,8.03,6.964500993939394,-2.4931057818181817,True
Aboagyekrom,5.6338919,-2.4497176,74.0,247.0,WorldPop_2020,village/town/hamlet,Samartex Hospital,Hospital,5.6158357,-2.5642588,12.83,0.53,60.73535349640504,True,9,4.15,5.670289039344262,-2.458074481967213,True
Aboagyekrom,6.1855528,-1.6542658,200.0,9983.0,WorldPop_2020,suburb,SDA Hospital,Hospital,6.19789,-1.63915,2.16,0.81,91.88789518242176,False,8,59.36,6.714017028571429,-1.578396487755102,True
Aboagyekrom,6.4703931,-2.6705695,209.0,773.0,WorldPop_2020,village/town/hamlet,Asarekrom CHPS,Clinic,6.5762288,-2.6390223,12.27,0.81,37.96059494738898,True,12,58.33,6.964500993939394,-2.4931057818181817,True
Aboakurom,5.8989588,-0.52508,235.0,483.0,WorldPop_2020,village/town/hamlet,Odumkyere Darmang Health Centre,Clinic,5.8688274,-0.5422364,3.85,0.63,34.70621512789109,True,7,41.73,5.636796764853556,-0.2551691866108785,True
Aboamakurom,6.6605475,-0.4467675,264.0,319.0,WorldPop_2020,village/town/hamlet,Asaaseboma CHPs Compound,Health_Post,6.7453453,-0.3607664,13.38,0.67,50.63257690460633,True,13,38.64,6.314441660273973,-0.4781223835616439,True
Aboasa,6.2967167,0.1338503,83.0,1455.0,WorldPop_2020,village/town/hamlet,Eric's Chemists,Pharmacy,6.2393408,0.0922965,7.86,0.81,21.444470193478924,True,4,60.67,6.159094553846154,0.6649345371794871,True
Aboase,5.3063437,-1.1268,70.0,2252.0,WorldPop_2020,village/town/hamlet,A & E Pharmacy,Pharmacy,5.2650332,-1.0204381,12.64,0.81,124.53235636054238,True,2,48.02,5.250318833333333,-1.5568655866666665,True
Aboaso,6.0017966,-1.1929896,113.0,1560.0,WorldPop_2020,village/town/hamlet,Boys Dormitory,Clinic,5.9689484,-0.9933071,22.38,0.63,85.59782910627355,True,13,86.34,6.314441660273973,-0.4781223835616439,False
Aboaso,6.6197104,-1.5384936,264.0,3075.0,WorldPop_2020,village/town/hamlet,Sawia Health Center,Hospital,6.6135698,-1.5422574,0.8,0.53,50.970462512590565,True,8,11.37,6.714017028571429,-1.578396487755102,True
Aboaso,6.8093475,-1.5381264,348.0,2423.0,WorldPop_2020,village/town/hamlet,Unnamed Pharmacy,Pharmacy,6.8061066,-1.5431847,0.66,0.61,31.930039169816688,True,8,11.5,6.714017028571429,-1.578396487755102,True
Aboaso,6.9354518,-1.6853862,294.0,7337.0,WorldPop_2020,village/town/hamlet,Offinso Health Center,Hospital,6.9379419,-1.6748899,1.19,0.53,35.656007527461256,True,8,27.31,6.714017028571429,-1.578396487755102,True
Abobiri,6.0434092,-0.548854,222.0,430.0,WorldPop_2020,village/town/hamlet,Suhum Hospital,Hospital,6.0380137,-0.4446668,11.54,0.63,20.9622125971913,True,13,31.14,6.314441660273973,-0.4781223835616439,True
Aboboi,5.5659577,-1.5835708,71.0,343.0,WorldPop_2020,village/town/hamlet,Methodist Hospital,Hospital,5.5552366,-1.5437239,4.57,0.91,120.80823233017776,True,2,35.22,5.250318833333333,-1.5568655866666665,True
Abodiem,6.5216884,-2.259754,180.0,446.0,WorldPop_2020,village/town/hamlet,DAKS Medical Center,Hospital,6.4566489,-2.3018646,8.6,0.53,45.04973828941528,True,12,55.57,6.964500993939394,-2.4931057818181817,True
Abodo,5.2553403,-1.3369095,60.0,3574.0,WorldPop_2020,village/town/hamlet,Hayford Dorothy,Pharmacy,5.2450265,-1.2480883,9.9,0.67,143.90745600179557,True,2,24.36,5.250318833333333,-1.5568655866666665,True
Abodom,5.53079,-0.8221508,79.0,7835.0,WorldPop_2020,village/town/hamlet,Drug Store,Pharmacy,5.5451393,-0.7027459,13.31,0.81,85.17234327487984,True,7,63.84,5.636796764853556,-0.2551691866108785,True
Abodom,5.5622123,-1.6024482,78.0,411.0,WorldPop_2020,village/town/hamlet,Unnamed Clinic,Clinic,5.5467418,-1.5469131,6.38,0.61,119.3253891518295,True,2,35.05,5.250318833333333,-1.5568655866666665,True
Abodom,6.391698,-1.058334,144.0,1090.0,WorldPop_2020,village/town/hamlet,Atta & Atta Pharmacy,Pharmacy,6.4675102,-0.8914768,20.27,0.53,70.88538830325183,True,13,64.69,6.314441660273973,-0.4781223835616439,True
Abodom,6.4236657,-1.8133936,178.0,1273.0,WorldPop_2020,village/town/hamlet,Eno Serwaah pharmacy,Pharmacy,6.2901832,-1.9712874,22.91,0.92,78.92133445931748,True,8,41.43,6.714017028571429,-1.578396487755102,True
Abodom,6.4361731,-1.5336768,230.0,4261.0,WorldPop_2020,village/town/hamlet,Ahwenie Memorial Hospital,Hospital,6.4549977,-1.5704577,4.57,0.53,70.31535379045613,True,8,31.29,6.714017028571429,-1.578396487755102,True
Aboduam,6.2116122,-2.4601301,283.0,2843.0,WorldPop_2020,village/town/hamlet,Green Shed Hospital,Hospital,6.1947913,-2.3273295,14.8,0.53,4.242428941218365,True,9,60.19,5.670289039344262,-2.458074481967213,True
Abofour,7.1349599,-1.7318724,328.0,4402.0,WorldPop_2020,village/town/hamlet,Nkwankwaa Health Centre,Clinic,7.2179158,-1.79409,11.5,0.92,39.28569926207746,True,8,49.78,6.714017028571429,-1.578396487755102,True
Abofrem,6.5183348,-2.3432926,164.0,920.0,WorldPop_2020,village/town/hamlet,Bibiani Government Hospital,Hospital,6.4564802,-2.3230746,7.23,0.63,40.34255895179089,True,12,52.3,6.964500993939394,-2.4931057818181817,True
Abofu,5.6167842,-0.2246882,28.0,63960.0,WorldPop_2020,suburb,Midway Clinic Ltd.,Doctor,5.6174757,-0.2262614,0.19,0.81,69.28141676908031,False,7,4.04,5.636796764853556,-0.2551691866108785,True
Aboi-Nkwanta,5.7697458,-2.4893607,79.0,122.0,WorldPop_2020,village/town/hamlet,Wassa Dunkwa Government Hospital,Hospital,5.774364,-2.5208175,3.52,0.68,45.592849713387984,True,9,11.59,5.670289039344262,-2.458074481967213,True
Abokobi,5.7327601,-0.2059142,80.0,6750.0,WorldPop_2020,village/town/hamlet,Abokobi Pharmacy,Pharmacy,5.7317627,-0.2049847,0.15,0.82,58.38289513111429,True,7,11.98,5.636796764853556,-0.2551691866108785,True
Abokyea,5.7726347,-2.744447,93.0,816.0,WorldPop_2020,village/town/hamlet,Unnamed Pharmacy,Pharmacy,5.7719154,-2.7441694,0.09,0.61,53.64445061014138,True,9,33.67,5.670289039344262,-2.458074481967213,True
Abokyi,5.4922171,-1.27049,142.0,616.0,WorldPop_2020,village/town/hamlet,Ankaako CHPS Compound,Clinic,5.3891941,-1.4548716,23.41,0.81,120.44097009607778,True,2,41.58,5.250318833333333,-1.5568655866666665,True
Abokyi,5.935536,-0.5820769,133.0,253.0,WorldPop_2020,village/town/hamlet,Odumkyere Darmang Health Centre,Clinic,5.8688274,-0.5422364,8.63,0.63,33.15330192624966,True,13,43.67,6.314441660273973,-0.4781223835616439,True
Abokyi,6.4341241,-0.7433099,198.0,240.0,WorldPop_2020,village/town/hamlet,Unnamed Pharmacy,Pharmacy,6.477494,-0.6567451,10.71,0.33,41.661962275683,True,13,32.19,6.314441660273973,-0.4781223835616439,True
Abokyikrom,6.6084811,-2.0793552,173.0,1360.0,WorldPop_2020,village/town/hamlet,Nyinahin Hospital,Hospital,6.6008109,-2.1097935,3.47,0.53,65.06453130398201,True,8,56.56,6.714017028571429,-1.578396487755102,True
Abokyikurom,5.8451119,-0.4960813,135.0,489.0,WorldPop_2020,village/town/hamlet,Annat Medical Diagnostics Centre,Doctor,5.8014438,-0.4914678,4.88,0.81,39.928146080867,True,7,35.31,5.636796764853556,-0.2551691866108785,True
Abokyikurom,6.5261504,-0.9343502,213.0,564.0,WorldPop_2020,isolated_dwelling,Bramkurom CHPS Compound,Clinic,6.515554,-0.8907326,4.96,0.82,64.77902689379238,True,13,55.64,6.314441660273973,-0.4781223835616439,True
Abokyikurom,6.6733031,-0.9195337,246.0,1444.0,WorldPop_2020,village/town/hamlet,Apradang Clinic,Hospital,6.5486346,-0.8663086,15.06,0.53,66.5553009428476,True,13,63.01,6.314441660273973,-0.4781223835616439,True
Abom,6.5494577,-1.7177725,267.0,464.0,WorldPop_2020,village/town/hamlet,Gary Marvin Memorial Hospital,Hospital,6.604927,-1.6603731,8.85,0.53,66.84740905178833,True,8,23.91,6.714017028571429,-1.578396487755102,True
Aboma,6.1057981,-0.1645225,198.0,214.0,WorldPop_2020,village/town/hamlet,EverCare Pharmacy,Pharmacy,6.1284523,-0.2123742,5.86,0.81,32.966955500611334,True,13,41.71,6.314441660273973,-0.4781223835616439,True
Aboman,5.7270168,-0.1967642,60.0,7385.0,WorldPop_2020,village/town/hamlet,Eben Kweku Newton Licensed Chemical Shop,Pharmacy,5.7318913,-0.2033705,0.91,0.82,59.413118657195234,True,7,11.93,5.636796764853556,-0.2551691866108785,True
Abomasarefo,7.1206081,-0.0120724,153.0,1187.0,WorldPop_2020,village/town/hamlet,Supom CHPs Compound,Health_Post,7.1788628,0.0049842,6.75,0.53,72.51936302011478,True,0,42.93,7.010195706040268,0.36073386979865807,True
Abomosu,6.3025221,-0.7252218,163.0,8307.0,WorldPop_2020,village/town/hamlet,Abomosu Hospital,Hospital,6.3007816,-0.734213,1.01,0.81,32.79102584897284,True,13,27.34,6.314441660273973,-0.4781223835616439,True
Abompe,6.2004535,-0.8797807,176.0,1149.0,WorldPop_2020,village/town/hamlet,Abodom CHPS Compound,Clinic,6.1642186,-0.8186405,7.87,0.53,47.986045956693054,True,13,46.17,6.314441660273973,-0.4781223835616439,True
Abompe,6.3792307,-0.4778773,221.0,2575.0,WorldPop_2020,village/town/hamlet,Pharmacy Healthline & Mart Retail,Pharmacy,6.3494602,-0.4862524,3.44,0.81,19.83429297149865,True,13,7.2,6.314441660273973,-0.4781223835616439,True
Abompe,6.7438582,-1.9269621,194.0,407.0,WorldPop_2020,village/town/hamlet,Medicap Pharmacy,Pharmacy,6.8189792,-1.8612681,11.06,0.81,69.00157950666971,True,8,38.63,6.714017028571429,-1.578396487755102,True
Abompekurom,6.2171381,-1.6738117,219.0,11644.0,WorldPop_2020,suburb,D. B. Twumasi Chemicals OTC Medicine,Pharmacy,6.2132762,-1.6884994,1.68,0.81,89.80523381512478,False,8,56.25,6.714017028571429,-1.578396487755102,True
Abomposu,6.2594709,-1.5916121,224.0,319.0,WorldPop_2020,village/town/hamlet,SDA Hospital,Hospital,6.19789,-1.63915,8.63,0.81,90.82741746728418,True,8,50.56,6.714017028571429,-1.578396487755102,True
Abon,6.8613662,-0.4513434,98.0,155.0,WorldPop_2020,village/town/hamlet,Asaaseboma CHPs Compound,Health_Post,6.7453453,-0.3607664,16.32,0.67,72.84323258167342,True,13,60.89,6.314441660273973,-0.4781223835616439,True
Abon,6.8746698,-0.4413046,111.0,1108.0,WorldPop_2020,village/town/hamlet,Asaaseboma CHPs Compound,Health_Post,6.7453453,-0.3607664,16.91,0.67,74.31423084296864,True,13,62.43,6.314441660273973,-0.4781223835616439,True
Abonko,5.2391792,-1.0293553,22.0,6113.0,WorldPop_2020,village/town/hamlet,Sahara Herbal clinic,Clinic,5.2569192,-1.0219939,2.13,0.81,124.60189938049588,True,2,58.42,5.250318833333333,-1.5568655866666665,True
Abonku,5.3939182,-0.7695878,62.0,771.0,WorldPop_2020,village/town/hamlet,Emergency Unit,Clinic,5.3411207,-0.7516456,6.2,0.81,96.34439639877095,True,7,63.02,5.636796764853556,-0.2551691866108785,True
Abono,6.5351065,-1.4301852,105.0,924.0,WorldPop_2020,village/town/hamlet,Richard Fowler Catholic Clinic,Clinic,6.4679724,-1.4723001,8.8,0.53,57.65164107306388,True,8,25.76,6.714017028571429,-1.578396487755102,True
Abonse,5.9978851,-0.0213664,111.0,666.0,WorldPop_2020,village/town/hamlet,CHPS Compound,Clinic,6.0105292,-0.0515671,3.62,0.63,52.19654657282611,True,7,47.76,5.636796764853556,-0.2551691866108785,True
Abonse,6.4145902,-2.6158268,185.0,484.0,WorldPop_2020,village/town/hamlet,Star of Hope Hospital,Hospital,6.5054442,-2.4999113,16.31,0.81,29.5426352160046,True,12,62.63,6.964500993939394,-2.4931057818181817,True
Abonsuaso,6.8238159,-2.2237154,225.0,2187.0,WorldPop_2020,village/town/hamlet,St. Elizabeth Hospital,Hospital,6.9320854,-2.3580273,19.1,0.53,76.6147486487465,True,12,33.6,6.964500993939394,-2.4931057818181817,True
Abor,5.2918527,-0.9502975,41.0,4030.0,WorldPop_2020,village/town/hamlet,Sanford Internal Clinic,Clinic,5.3390201,-0.9139165,6.61,0.81,115.16671160904563,True,2,67.32,5.250318833333333,-1.5568655866666665,True
Abor,6.0625442,0.86207,26.0,6907.0,WorldPop_2020,village/town/hamlet,Gilter Pharmacy,Pharmacy,6.0670738,0.8600637,0.55,0.81,90.61755941144467,True,4,24.3,6.159094553846154,0.6649345371794871,True
Abora,4.9076447,-2.0511711,43.0,1781.0,WorldPop_2020,locality,Unnamed Laboratory,Laboratory,4.9041732,-2.0664777,1.74,0.33,148.87863437154547,True,2,66.7,5.250318833333333,-1.5568655866666665,True
Abora,6.0625895,-1.9810981,135.0,993.0,WorldPop_2020,village/town/hamlet,Site Clinic,Clinic,5.9579531,-1.9327129,12.81,0.53,57.26431041309364,True,9,68.46,5.670289039344262,-2.458074481967213,True
Abore,5.8687028,-0.5317077,206.0,432.0,WorldPop_2020,isolated_dwelling,Odumkyere Darmang Health Centre,Clinic,5.8688274,-0.5422364,1.16,0.63,38.12936310650012,True,7,40.01,5.636796764853556,-0.2551691866108785,True
Aborgwe,5.535046,-0.2452612,23.0,80912.0,WorldPop_2020,suburb,Mamprobi Hospital,Hospital,5.5381795,-0.2452645,0.35,0.53,77.113373024057,False,7,11.37,5.636796764853556,-0.2551691866108785,True
Aborlove Nolopi,6.0349516,0.9237903,7.0,1398.0,WorldPop_2020,village/town/hamlet,Aborlove Nolopi CHPS Compound,Health_Post,6.0293181,0.9257891,0.66,0.53,98.04463229820274,True,4,31.78,6.159094553846154,0.6649345371794871,True
Aborodwom,6.5223197,-1.4399292,112.0,301.0,WorldPop_2020,village/town/hamlet,Richard Fowler Catholic Clinic,Clinic,6.4679724,-1.4723001,7.02,0.53,59.16047244776308,True,8,26.24,6.714017028571429,-1.578396487755102,True
Abortia Dorfor,6.2244596,0.1214209,39.0,732.0,WorldPop_2020,village/town/hamlet,DC Pharmacy,Pharmacy,6.2328892,0.0920081,3.38,0.81,29.55126979242833,True,4,60.52,6.159094553846154,0.6649345371794871,True
Aborweseso,5.5432633,-1.2861836,133.0,697.0,WorldPop_2020,village/town/hamlet,Ankaako CHPS Compound,Clinic,5.3891941,-1.4548716,25.34,0.81,118.19647125550902,True,2,44.26,5.250318833333333,-1.5568655866666665,True
Abosamso,6.3150505,-1.4141401,227.0,2389.0,WorldPop_2020,village/town/hamlet,Richard Fowler Catholic Clinic,Clinic,6.4679724,-1.4723001,18.18,0.53,81.83652021205542,True,8,47.93,6.714017028571429,-1.578396487755102,True
Abosikurom,6.2573779,-0.9888916,147.0,351.0,WorldPop_2020,village/town/hamlet,Abodom CHPS Compound,Clinic,6.1642186,-0.8186405,21.48,0.53,60.36135947365349,True,13,56.81,6.314441660273973,-0.4781223835616439,True
Aboso,5.362385,-1.949832,88.0,8790.0,GeoNames/OSM,village/town/hamlet,Aboso Clinic,Clinic,5.3658203,-1.9409662,1.05,0.81,108.26826759037888,True,2,45.26,5.250318833333333,-1.5568655866666665,True
Aboso,5.6176218,-1.5157531,90.0,463.0,WorldPop_2020,village/town/hamlet,Drug Store,Pharmacy,5.6176515,-1.5359549,2.24,0.92,124.10759947130023,True,2,41.09,5.250318833333333,-1.5568655866666665,True
Abossey Okai,5.5591011,-0.2336242,14.0,76189.0,WorldPop_2020,suburb,Nakopat Pharmacy,Pharmacy,5.56492,-0.2345585,0.66,0.81,74.9648310192151,False,7,8.96,5.636796764853556,-0.2551691866108785,True
Abotakyi,5.9241319,-0.1309926,475.0,4589.0,WorldPop_2020,village/town/hamlet,Tetteh Quarshie Hospital,Hospital,5.9216374,-0.1323741,0.32,0.53,46.54647633627,True,7,34.78,5.636796764853556,-0.2551691866108785,True
Abotanso,6.8883916,-1.2878819,399.0,822.0,WorldPop_2020,village/town/hamlet,Bodomase Clinic,Hospital,6.8898446,-1.2519242,3.97,0.92,21.302984898721647,True,8,37.48,6.714017028571429,-1.578396487755102,True
Abotanso,6.9349552,-2.0647511,269.0,793.0,WorldPop_2020,village/town/hamlet,Anyinasuso Health Centre,Clinic,6.9590279,-2.100323,4.75,0.81,76.2102987099136,True,12,47.39,6.964500993939394,-2.4931057818181817,True
Abotanso,7.0799542,-0.0939405,167.0,1723.0,WorldPop_2020,village/town/hamlet,Abotanse CHPs Compound,CHPS,7.0798809,-0.0957694,0.2,0.67,71.28763401992342,True,0,50.77,7.010195706040268,0.36073386979865807,True
Abotanso No.1,7.07851,-0.09235,158.0,1514.0,WorldPop_2020,neighbourhood,Abotanse CHPs Compound,CHPS,7.0798809,-0.0957694,0.41,0.67,71.07125682608815,False,0,50.57,7.010195706040268,0.36073386979865807,True
Abotanso No.2,7.0828,-0.095,176.0,1719.0,WorldPop_2020,neighbourhood,Abotanse CHPs Compound,CHPS,7.0798809,-0.0957694,0.34,0.67,71.62294351203457,False,0,50.94,7.010195706040268,0.36073386979865807,True
Abotanso No.3,7.0794,-0.0979,166.0,1490.0,WorldPop_2020,neighbourhood,Abotanse CHPs Compound,CHPS,7.0798809,-0.0957694,0.24,0.67,71.40673190191724,False,0,51.19,7.010195706040268,0.36073386979865807,True
Abotareye,7.8694198,-2.0364726,227.0,203.0,WorldPop_2020,village/town/hamlet,Asubingya chip compounds,Clinic,7.7429908,-2.0629199,14.36,0.81,115.26340185783252,True,1,23.35,7.707216,-1.9018804730769232,True
Aboterɛ Yɛ,5.9393459,-2.668103,232.0,345.0,WorldPop_2020,village/town/hamlet,Unnamed Clinic,Clinic,5.8341252,-2.665354,11.7,0.61,33.66288024861249,True,9,37.88,5.670289039344262,-2.458074481967213,True
Abotre,6.7845858,-0.5418947,89.0,918.0,WorldPop_2020,village/town/hamlet,st joseph's clinic an maternity home,Clinic,6.6519796,-0.6662393,20.15,0.83,65.2145900902405,True,13,52.75,6.314441660273973,-0.4781223835616439,True
Abotriansa,6.7646923,-0.9094459,274.0,157.0,WorldPop_2020,village/town/hamlet,Agogo Presbyterian hospital,Hospital,6.7965698,-1.0855078,19.76,0.81,61.60511050476492,True,13,69.12,6.314441660273973,-0.4781223835616439,True
Abouhia,6.7470441,-1.6506223,251.0,69201.0,WorldPop_2020,suburb,7 Days pharmacy,Pharmacy,6.7504784,-1.642154,1.01,0.81,44.88487382283587,False,8,8.78,6.714017028571429,-1.578396487755102,True
Abountem,7.4750536,-1.6993534,275.0,1246.0,WorldPop_2020,village/town/hamlet,HAPPY FAMILY CLINIC,Clinic,7.5590959,-1.7180471,9.57,0.53,58.00376127304138,True,1,34.13,7.707216,-1.9018804730769232,True
Abour,7.6084567,-1.1207932,177.0,303.0,WorldPop_2020,village/town/hamlet,Kumfia Healthcare,Clinic,7.779132,-1.2251245,22.19,0.81,67.8782309091626,True,1,86.78,7.707216,-1.9018804730769232,False
Abouso-Jerusalem,6.9297316,-2.7888184,212.0,362.0,WorldPop_2020,village/town/hamlet,Ahmadiyya,Clinic,6.8940491,-2.5651706,25.0,0.53,89.2776512196328,True,12,32.87,6.964500993939394,-2.4931057818181817,True
Abowinum,5.3875133,-0.9838114,78.0,3762.0,WorldPop_2020,village/town/hamlet,Unnamed Pharmacy,Pharmacy,5.4282328,-0.958741,5.31,0.61,108.03671535849558,True,2,65.25,5.250318833333333,-1.5568655866666665,True
Aboy Poultry Farm,10.5131352,-0.3677845,347.0,4730.0,WorldPop_2020,farm,Baptist Medical Center Nalerigu,Hospital,10.515869,-0.3640743,0.51,0.53,51.12421039402688,True,11,53.66,10.73173961451613,-0.8055273370967743,True
Abrabra,6.3017287,-2.6078649,182.0,693.0,WorldPop_2020,village/town/hamlet,Kama CHPS Compound,Clinic,6.2933476,-2.7147583,11.85,0.81,19.018116877757883,True,9,72.14,5.670289039344262,-2.458074481967213,True
Abrade,6.1114217,-1.1888709,117.0,626.0,WorldPop_2020,village/town/hamlet,School Clinic,Clinic,5.9697837,-0.9931264,26.77,0.53,82.81746953944081,True,8,79.64,6.714017028571429,-1.578396487755102,True
Abrade,6.8154819,-1.5699479,324.0,463.0,WorldPop_2020,village/town/hamlet,Unnamed Pharmacy,Pharmacy,6.8061066,-1.5431847,3.13,0.61,33.379532333891625,True,8,11.32,6.714017028571429,-1.578396487755102,True
Abrafo Odumase,5.3351566,-1.3810645,127.0,916.0,WorldPop_2020,village/town/hamlet,Ankaako CHPS Compound,Clinic,5.3891941,-1.4548716,10.14,0.81,141.15742527841198,True,2,21.63,5.250318833333333,-1.5568655866666665,True
Abrakaso,6.9285516,-1.509279,293.0,3651.0,WorldPop_2020,village/town/hamlet,Priceline Pharmacy,Pharmacy,6.8715388,-1.5099093,6.34,0.81,19.52116985849657,True,8,25.05,6.714017028571429,-1.578396487755102,True
Abrankese,6.5506036,-1.4811909,280.0,1870.0,WorldPop_2020,village/town/hamlet,Richard Fowler Catholic Clinic,Clinic,6.4679724,-1.4723001,9.24,0.53,56.7208691655197,True,8,21.11,6.714017028571429,-1.578396487755102,True
Abransa,5.078366,-1.5388799,22.0,3630.0,WorldPop_2020,village/town/hamlet,Kissi Health Centre,Hospital,5.0871197,-1.5060483,3.76,0.68,160.84058608059317,True,2,19.22,5.250318833333333,-1.5568655866666665,True
Abrefakrom,7.4747819,-2.1701509,363.0,1309.0,WorldPop_2020,village/town/hamlet,Buoku polyclinic,Clinic,7.4832239,-2.1730852,0.99,0.53,98.32920207403828,True,1,39.27,7.707216,-1.9018804730769232,True
Abrekum,5.3079715,-0.7123304,14.0,1494.0,WorldPop_2020,village/town/hamlet,Emergency Unit,Clinic,5.3411207,-0.7516456,5.7,0.81,103.24143176209492,True,7,62.43,5.636796764853556,-0.2551691866108785,True
Abrem,5.1863369,-1.4267674,69.0,3189.0,WorldPop_2020,village/town/hamlet,Atonkwa CHPS Compound,Clinic,5.1148728,-1.3256942,13.73,0.63,156.30361076646668,True,2,16.07,5.250318833333333,-1.5568655866666665,True
Abrem Berase,5.1901898,-1.3951965,60.0,1906.0,WorldPop_2020,village/town/hamlet,Atonkwa CHPS Compound,Clinic,5.1148728,-1.3256942,11.37,0.63,153.58274188331896,True,2,19.11,5.250318833333333,-1.5568655866666665,True
Abremponsu,6.3228991,-0.2436277,500.0,532.0,WorldPop_2020,village/town/hamlet,Asesewa Government Hospital,Hospital,6.4017208,-0.146631,13.85,0.95,26.06132941507286,True,13,25.93,6.314441660273973,-0.4781223835616439,True
Abrense,6.499522,-1.8314188,215.0,577.0,WorldPop_2020,village/town/hamlet,Unnamed Pharmacy,Pharmacy,6.6599097,-1.8423071,17.87,0.61,78.72003918215374,True,8,36.74,6.714017028571429,-1.578396487755102,True
Abrense,7.0173683,-2.4544935,260.0,382.0,WorldPop_2020,village/town/hamlet,Unnamed Pharmacy,Pharmacy,6.9822811,-2.38736,8.37,0.61,92.44209000821118,True,12,7.26,6.964500993939394,-2.4931057818181817,True
Abrepo,6.7272682,-1.6542739,271.0,76845.0,WorldPop_2020,suburb,County Hospital,Hospital,6.7265479,-1.6582299,0.44,0.53,46.81888087829176,False,8,8.51,6.714017028571429,-1.578396487755102,True
Abresekurom,6.9903627,-2.6850291,252.0,344.0,WorldPop_2020,village/town/hamlet,Ahmadiyya,Clinic,6.8940491,-2.5651706,17.02,0.53,92.1054907290016,True,12,21.38,6.964500993939394,-2.4931057818181817,True
Abreshia,5.1331184,-1.4239953,36.0,2552.0,WorldPop_2020,village/town/hamlet,Kissi Health Centre,Hospital,5.0871197,-1.5060483,10.43,0.68,160.38324527967615,True,2,19.66,5.250318833333333,-1.5568655866666665,True
Abrobiano,5.0423322,-1.5328166,5.0,2293.0,WorldPop_2020,village/town/hamlet,Komenda Health Center,Clinic,5.0530526,-1.4929279,4.58,0.92,164.3169365574322,True,2,23.28,5.250318833333333,-1.5568655866666665,True
Abrobuasen,6.0344114,-1.8825755,121.0,241.0,WorldPop_2020,village/town/hamlet,DOORMOSH,Clinic,5.9615088,-1.8845838,8.11,0.53,68.59795739467037,True,9,75.44,5.670289039344262,-2.458074481967213,True
Abrodease,6.5501368,-1.8224133,236.0,973.0,WorldPop_2020,village/town/hamlet,Frimpong Boateng Medical Center,Hospital,6.6615016,-1.8205251,12.38,0.81,73.78140698291446,True,8,32.53,6.714017028571429,-1.578396487755102,True
Abrofow,5.4136422,-0.9367062,82.0,4944.0,WorldPop_2020,village/town/hamlet,Unnamed Pharmacy,Pharmacy,5.4282328,-0.958741,2.93,0.61,102.78686771073843,True,2,71.02,5.250318833333333,-1.5568655866666665,True
Abrokofe,6.3868947,-2.8904672,193.0,358.0,WorldPop_2020,village/town/hamlet,CHPS Compound,Clinic,6.4507913,-2.9733155,11.59,0.81,50.31333418651513,True,12,77.79,6.964500993939394,-2.4931057818181817,True
Abroma,6.9744089,-1.6084995,298.0,7635.0,WorldPop_2020,village/town/hamlet,Beked,Pharmacy,6.9637589,-1.6787319,7.84,0.81,26.18326397746361,True,8,29.14,6.714017028571429,-1.578396487755102,True
Abronehia,6.0860018,-2.9243037,145.0,963.0,WorldPop_2020,village/town/hamlet,Enchi Government Hospital,Hospital,5.8305012,-2.8213004,30.61,0.53,49.82440880196736,True,9,69.25,5.670289039344262,-2.458074481967213,True
Abrongo,8.1268101,-0.2220999,111.0,603.0,WorldPop_2020,village/town/hamlet,Unnamed Pharmacy,Pharmacy,8.144827,-0.1540547,7.75,0.61,43.077065920378665,True,10,51.69,8.31955012745098,0.20536231960784324,True
Abronye,7.4956058,-2.2694814,221.0,458.0,WorldPop_2020,village/town/hamlet,Buoku polyclinic,Clinic,7.4832239,-2.1730852,10.72,0.53,109.12776787394696,True,1,46.85,7.707216,-1.9018804730769232,True
Abroso No.1,7.2047916,-2.5928787,273.0,545.0,WorldPop_2020,village/town/hamlet,Mw,Clinic,7.2206418,-2.6417699,5.67,0.81,113.74285544535454,True,12,28.9,6.964500993939394,-2.4931057818181817,True
Abrowogum,5.4961952,-1.0637856,63.0,1171.0,WorldPop_2020,village/town/hamlet,Unnamed Pharmacy,Pharmacy,5.4282328,-0.958741,13.87,0.61,103.83566647168122,True,2,61.05,5.250318833333333,-1.5568655866666665,True
Abrubruwa,7.9369167,0.5403144,209.0,1069.0,WorldPop_2020,village/town/hamlet,Abubruwa CHPS Compound,Clinic,7.9330107,0.5377045,0.52,0.81,62.866957470159214,True,10,56.3,8.31955012745098,0.20536231960784324,True
Abua,6.2210066,-0.2635056,333.0,513.0,WorldPop_2020,village/town/hamlet,CP,Pharmacy,6.2218955,-0.3655684,11.28,0.81,20.31993143905599,True,13,25.9,6.314441660273973,-0.4781223835616439,True
Abuaben,6.4751455,-0.7806268,229.0,503.0,WorldPop_2020,village/town/hamlet,Agyakwa Hospital,Hospital,6.5383131,-0.7672648,7.18,0.53,47.71708626613545,True,13,37.9,6.314441660273973,-0.4781223835616439,True
Abuakwa,5.6273864,-0.5896166,84.0,314.0,WorldPop_2020,village/town/hamlet,Ayiresu Chip Compound,Hospital,5.6211389,-0.5218935,7.53,0.63,65.57369584693883,True,7,37.02,5.636796764853556,-0.2551691866108785,True
Abuakwa,6.6985948,-1.7145056,241.0,12912.0,WorldPop_2020,village/town/hamlet,Abuakwa Health Center,Hospital,6.7012439,-1.715162,0.3,0.53,53.58586422720096,True,8,15.13,6.714017028571429,-1.578396487755102,True
Abuakwa Breman,5.9562191,-1.751991,112.0,1430.0,WorldPop_2020,village/town/hamlet,St. Mark Hospital,Hospital,5.9677775,-1.7904634,4.44,0.53,84.84549595800529,True,2,81.41,5.250318833333333,-1.5568655866666665,False
Abuakwa Nkwanta,5.9408893,-1.7634706,137.0,937.0,WorldPop_2020,village/town/hamlet,St. Mark Hospital,Hospital,5.9677775,-1.7904634,4.23,0.53,84.15455627441081,True,2,80.12,5.250318833333333,-1.5568655866666665,False
Abuakwaa,6.2997293,-1.838496,202.0,861.0,WorldPop_2020,village/town/hamlet,Eno Serwaah pharmacy,Pharmacy,6.2901832,-1.9712874,14.72,0.92,72.66531697406874,True,8,54.29,6.714017028571429,-1.578396487755102,True
Abuam,6.7501918,-0.8072993,287.0,229.0,WorldPop_2020,village/town/hamlet,Nat Herbal Clinic,Clinic,6.6342427,-0.7403711,14.86,0.92,72.22164215094963,True,13,60.58,6.314441660273973,-0.4781223835616439,True
Abuanokope,5.792658,0.4261386,3.0,3346.0,WorldPop_2020,village/town/hamlet,Unnamed Pharmacy,Pharmacy,5.8635207,0.4333225,7.92,0.33,82.29811082697599,True,4,48.56,6.159094553846154,0.6649345371794871,True
Abuasa,6.3955049,-0.1235533,280.0,705.0,WorldPop_2020,village/town/hamlet,Asesewa Government Hospital,Hospital,6.4017208,-0.146631,2.64,0.95,33.2728115993358,True,13,40.21,6.314441660273973,-0.4781223835616439,True
Abuasu,7.3963911,-1.7094617,271.0,645.0,WorldPop_2020,village/town/hamlet,Unnamed Clinic,Clinic,7.3134112,-1.5788915,17.1,0.61,52.05516279067639,True,1,40.55,7.707216,-1.9018804730769232,True
Abuatsian,6.455121,-0.1866791,358.0,475.0,WorldPop_2020,village/town/hamlet,Asesewa Government Hospital,Hospital,6.4017208,-0.146631,7.41,0.95,38.80036540813385,True,13,35.8,6.314441660273973,-0.4781223835616439,True
Abude,6.4262853,-0.1266056,266.0,427.0,WorldPop_2020,village/town/hamlet,Asesewa Government Hospital,Hospital,6.4017208,-0.146631,3.52,0.95,32.71199526767016,True,13,40.79,6.314441660273973,-0.4781223835616439,True
Abudo-kura,7.0782123,-0.1008028,171.0,1122.0,WorldPop_2020,village/town/hamlet,Abotanse CHPs Compound,CHPS,7.0798809,-0.0957694,0.59,0.67,71.41674289429956,True,0,51.49,7.010195706040268,0.36073386979865807,True
Abuenu,5.2223427,-1.2635618,86.0,729.0,WorldPop_2020,village/town/hamlet,Hayford Dorothy,Pharmacy,5.2450265,-1.2480883,3.05,0.67,141.24654507521768,True,2,32.63,5.250318833333333,-1.5568655866666665,True
Abuesi,4.982963,-1.6370059,6.0,11979.0,WorldPop_2020,village/town/hamlet,Aboadze Clinic,Clinic,4.9733344,-1.6500323,1.8,0.53,162.47474258568295,True,2,31.03,5.250318833333333,-1.5568655866666665,True
Abujuro,7.8776241,-0.0017091,198.0,871.0,WorldPop_2020,village/town/hamlet,Kete Krachi Goverment Hospital,Hospital,7.7943838,-0.056682,11.06,0.53,8.875115294220715,True,10,54.17,8.31955012745098,0.20536231960784324,True
Abukyenso,5.9211809,-0.6891086,172.0,335.0,WorldPop_2020,village/town/hamlet,Asamankese Government Hospital,Hospital,5.8539806,-0.6786598,7.56,0.53,41.13760114696939,True,13,49.56,6.314441660273973,-0.4781223835616439,True
Abunyanya,8.5554881,0.3692117,146.0,1456.0,WorldPop_2020,village/town/hamlet,Kpassa Health Centre,Clinic,8.4959459,0.3139676,8.99,0.53,93.73245548154884,True,10,31.83,8.31955012745098,0.20536231960784324,True
Abuom,6.6179823,-2.7039682,246.0,1191.0,WorldPop_2020,village/town/hamlet,Nakite CHPS,Clinic,6.6257935,-2.7639025,6.68,0.53,53.982779519348206,True,12,45.02,6.964500993939394,-2.4931057818181817,True
Abuom,7.1564483,-2.0839959,323.0,938.0,WorldPop_2020,village/town/hamlet,St. John of God Hospital,Hospital,7.1762749,-2.0976539,2.67,0.53,77.98232179254019,True,12,49.94,6.964500993939394,-2.4931057818181817,True
Abuontem,6.588436,-1.5652723,256.0,4814.0,WorldPop_2020,village/town/hamlet,Sawia Health Center,Hospital,6.6135698,-1.5422574,3.78,0.53,55.23991990157605,True,8,14.04,6.714017028571429,-1.578396487755102,True
Abuontem,7.1529545,-1.3940844,326.0,1065.0,WorldPop_2020,village/town/hamlet,kofiase health clinic,Clinic,7.1412636,-1.4834676,9.95,0.81,10.929426912221386,True,8,52.88,6.714017028571429,-1.578396487755102,True
Abuoso,6.51736,-0.2692139,277.0,833.0,WorldPop_2020,village/town/hamlet,Asesewa Government Hospital,Hospital,6.4017208,-0.146631,18.68,0.95,39.92879132944756,True,13,32.28,6.314441660273973,-0.4781223835616439,True
Abuoso,6.5227613,-1.5399614,228.0,668.0,WorldPop_2020,village/town/hamlet,Ahwenie Memorial Hospital,Hospital,6.4549977,-1.5704577,8.25,0.53,61.233655136677086,True,8,21.69,6.714017028571429,-1.578396487755102,True
Abura,5.3103937,-0.7698124,32.0,356.0,WorldPop_2020,village/town/hamlet,Emergency Unit,Clinic,5.3411207,-0.7516456,3.96,0.81,104.98444569598414,True,7,67.54,5.636796764853556,-0.2551691866108785,True
Abura Dunkwa,5.3403473,-1.1712848,107.0,10459.0,WorldPop_2020,village/town/hamlet,Hayford Dorothy,Pharmacy,5.2450265,-1.2480883,13.59,0.67,124.67457860367286,True,2,43.85,5.250318833333333,-1.5568655866666665,True
Abura Gyabankrom,5.2839093,-1.1173493,78.0,2492.0,WorldPop_2020,village/town/hamlet,A & E Pharmacy,Pharmacy,5.2650332,-1.0204381,10.93,0.81,125.89590473169196,True,2,48.81,5.250318833333333,-1.5568655866666665,True
Abura Tetsi,5.3499314,-1.1585154,91.0,3499.0,WorldPop_2020,village/town/hamlet,Hayford Dorothy,Pharmacy,5.2450265,-1.2480883,15.31,0.67,122.95310814848462,True,2,45.47,5.250318833333333,-1.5568655866666665,True
Aburaso,6.6090956,-0.4371813,399.0,630.0,WorldPop_2020,village/town/hamlet,Asaaseboma CHPs Compound,Health_Post,6.7453453,-0.3607664,17.34,0.67,44.9535921262857,True,13,33.07,6.314441660273973,-0.4781223835616439,True
Aburaso,6.6597129,-1.6739169,272.0,20298.0,WorldPop_2020,village/town/hamlet,Dong Steven Pharmacy,Pharmacy,6.6615485,-1.6735477,0.21,0.82,54.059015265736456,True,8,12.16,6.714017028571429,-1.578396487755102,True
Aburaso,6.9318773,-1.9041192,261.0,963.0,WorldPop_2020,village/town/hamlet,Mankranso Government Hospital,Hospital,6.8210441,-1.8627434,13.14,0.81,58.88844770117771,True,8,43.36,6.714017028571429,-1.578396487755102,True
Aburi,5.8474757,-0.1752664,436.0,18399.0,GeoNames/OSM,village/town/hamlet,Unnamed Pharmacy,Pharmacy,5.8229134,-0.1218929,6.51,0.33,49.425034315430445,True,7,25.04,5.636796764853556,-0.2551691866108785,True
Aburi,6.2732343,-2.0633092,177.0,653.0,WorldPop_2020,village/town/hamlet,Eno Serwaah pharmacy,Pharmacy,6.2901832,-1.9712874,10.34,0.92,47.69133188988241,True,8,72.61,6.714017028571429,-1.578396487755102,True
Aburi Amanase,5.9763283,-0.5888119,213.0,913.0,WorldPop_2020,village/town/hamlet,Odumkyere Darmang Health Centre,Clinic,5.8688274,-0.5422364,13.02,0.63,29.595610472981765,True,13,39.54,6.314441660273973,-0.4781223835616439,True
Aburokyire,6.7057393,-1.9422063,189.0,212.0,WorldPop_2020,village/town/hamlet,Unnamed Pharmacy,Pharmacy,6.6599097,-1.8423071,12.15,0.61,72.6182307098375,True,8,40.19,6.714017028571429,-1.578396487755102,True
Aburokyire,7.0736872,-1.7138433,320.0,361.0,WorldPop_2020,village/town/hamlet,Beked,Pharmacy,6.9637589,-1.6787319,12.82,0.81,36.337401475690775,True,8,42.7,6.714017028571429,-1.578396487755102,True
Abusuakruwa,6.7326808,-1.6410238,269.0,95113.0,WorldPop_2020,suburb,Trekanet Pharmacy,Pharmacy,6.7289428,-1.6438374,0.52,0.82,45.43321966819621,False,8,7.22,6.714017028571429,-1.578396487755102,True
Abutia,6.5103224,0.3721511,153.0,2098.0,WorldPop_2020,village/town/hamlet,Abutia-Agorve Health Centre,Health_Center,6.5057498,0.3649699,0.94,0.67,23.314491666333296,True,4,50.72,6.159094553846154,0.6649345371794871,True
Abutia,6.5418962,0.446727,96.0,680.0,WorldPop_2020,village/town/hamlet,Have CHPs Compound,CHPS,6.527771,0.438216,1.83,0.67,31.98680022778948,True,4,48.92,6.159094553846154,0.6649345371794871,True
Abutiakope,5.90481,0.9886934,5.0,18077.0,GeoNames/OSM,village/town/hamlet,Riad,Pharmacy,5.902439,0.9889165,0.26,0.81,111.92539107843815,True,4,45.62,6.159094553846154,0.6649345371794871,True
Accra,5.5571096,-0.2012376,32.0,2388000.0,OSM,city,Ebenezer Chemist Limited,Pharmacy,5.5529127,-0.1995926,0.5,0.82,76.37300040272727,False,7,10.68,5.636796764853556,-0.2551691866108785,True
Accra Central,5.545953,-0.2073911,16.0,68142.0,WorldPop_2020,suburb,Club Road Clinic,Clinic,5.5444776,-0.2063852,0.2,0.81,77.29184251193915,False,7,11.4,5.636796764853556,-0.2551691866108785,True
Accra New Town,5.5850503,-0.2107677,36.0,85147.0,WorldPop_2020,suburb,Franeva,Pharmacy,5.5850293,-0.2128638,0.23,0.81,73.10967018817291,False,7,7.57,5.636796764853556,-0.2551691866108785,True
Accra Village,6.4019026,-0.5930689,190.0,544.0,WorldPop_2020,village/town/hamlet,CHPS Compound,Hospital,6.3696878,-0.5306782,7.77,0.53,27.37506339601796,True,13,16.0,6.314441660273973,-0.4781223835616439,True
Acheakwao,6.5563854,-2.9397191,182.0,117.0,WorldPop_2020,village/town/hamlet,CHPS Compound,Clinic,6.4507913,-2.9733155,12.31,0.81,65.19736545853354,True,12,67.02,6.964500993939394,-2.4931057818181817,True
Acheampong Beposo,6.5344233,-2.5642347,214.0,581.0,WorldPop_2020,village/town/hamlet,Star of Hope Hospital,Hospital,6.5054442,-2.4999113,7.8,0.81,39.95969340432406,True,12,48.46,6.964500993939394,-2.4931057818181817,True
Acherensua,6.9793867,-2.294622,217.0,4484.0,WorldPop_2020,village/town/hamlet,St. Elizabeth Hospital,Hospital,6.9320854,-2.3580273,8.75,0.53,90.647803643541,True,12,21.97,6.964500993939394,-2.4931057818181817,True
Achiachen,6.3790187,-2.6726798,206.0,915.0,WorldPop_2020,village/town/hamlet,Kama CHPS Compound,Clinic,6.2933476,-2.7147583,10.6,0.81,30.1382440075788,True,12,68.06,6.964500993939394,-2.4931057818181817,True
Achiase,5.2929672,-1.3084205,73.0,62.0,WorldPop_2020,village/town/hamlet,Hayford Dorothy,Pharmacy,5.2450265,-1.2480883,8.55,0.67,138.71391238949175,True,2,27.91,5.250318833333333,-1.5568655866666665,True
Achiase,5.5090269,-0.7370952,84.0,6138.0,WorldPop_2020,village/town/hamlet,Unnamed Pharmacy,Pharmacy,5.5316828,-0.7004953,4.77,0.61,83.2000443663942,True,7,55.19,5.636796764853556,-0.2551691866108785,True
Achiase,5.8354534,-0.9966928,166.0,30290.0,WorldPop_2020,village/town/hamlet,Achiase Health Centre,Hospital,5.8447952,-1.0011211,1.15,0.63,73.23697029337228,True,13,78.26,6.314441660273973,-0.4781223835616439,True
Achiase,6.4544121,-1.3129529,213.0,2915.0,WorldPop_2020,village/town/hamlet,Richard Fowler Catholic Clinic,Clinic,6.4679724,-1.4723001,17.67,0.53,66.84638162694381,True,8,41.15,6.714017028571429,-1.578396487755102,True
Achiase,6.7815189,-1.6824866,267.0,5123.0,WorldPop_2020,village/town/hamlet,Unnamed Pharmacy,Pharmacy,6.7724299,-1.6459341,4.16,0.61,44.59390332233357,True,8,13.73,6.714017028571429,-1.578396487755102,True
Achiase Wansamire,6.6715173,-2.3055594,198.0,322.0,WorldPop_2020,village/town/hamlet,Goemat Pharmacy,Pharmacy,6.6927098,-2.4422716,15.28,0.81,57.640514302231765,True,12,38.6,6.964500993939394,-2.4931057818181817,True
Achiasewa,5.9566275,-1.2598175,126.0,525.0,WorldPop_2020,village/town/hamlet,Boys Dormitory,Clinic,5.9689484,-0.9933071,29.51,0.63,94.08657937920168,True,2,85.14,5.250318833333333,-1.5568655866666665,False
Achiasi,5.4212889,-0.8340746,78.0,673.0,WorldPop_2020,village/town/hamlet,Ngyiresi CHPS Compound,Clinic,5.3511022,-0.8436953,7.88,0.81,96.50131995523884,True,7,68.41,5.636796764853556,-0.2551691866108785,True
Achiasi,6.3007583,-1.6631144,224.0,1140.0,WorldPop_2020,village/town/hamlet,D. B. Twumasi Chemicals OTC Medicine,Pharmacy,6.2132762,-1.6884994,10.12,0.81,88.82788222079829,True,8,46.9,6.714017028571429,-1.578396487755102,True
Achimfo,5.782943,-2.7253737,69.0,1181.0,WorldPop_2020,village/town/hamlet,Achimfo Chips,Clinic,5.7842722,-2.7227839,0.32,0.81,51.5626337979268,True,9,32.12,5.670289039344262,-2.458074481967213,True
Achimota,5.6242019,-0.2276807,19.0,22767.0,GeoNames/OSM,village/town/hamlet,Phersons Pharmacy,Pharmacy,5.6216908,-0.2307753,0.44,0.82,68.39689151132882,True,7,3.35,5.636796764853556,-0.2551691866108785,True
Achinakrom,6.6613054,-1.468128,279.0,2674.0,WorldPop_2020,village/town/hamlet,Obaapa OTC,Pharmacy,6.6583093,-1.5120207,4.86,0.82,44.43214637759943,True,8,13.51,6.714017028571429,-1.578396487755102,True
Achowa Point,4.7600418,-1.9753069,19.0,194.0,WorldPop_2020,locality,Unnamed Pharmacy,Pharmacy,4.8888154,-1.9650078,14.36,0.61,167.06356877134178,True,2,71.56,5.250318833333333,-1.5568655866666665,True
Achubunyur,9.1189044,-1.6595094,185.0,286.0,WorldPop_2020,village/town/hamlet,West Gonja Hospital,Hospital,9.0635758,-1.7992513,16.53,0.81,165.1459486073989,True,6,78.63,9.432527868333334,-1.01728251,True
Acquahkrom,5.7213536,-1.6620912,108.0,340.0,WorldPop_2020,village/town/hamlet,Mmaa Baasa CHPS Compound,Clinic,5.6520981,-1.5721956,12.58,0.92,104.34012874199853,True,2,53.66,5.250318833333333,-1.5568655866666665,True
Acquai Allah,5.8831178,-2.6647939,124.0,590.0,WorldPop_2020,village/town/hamlet,Unnamed Clinic,Clinic,5.8341252,-2.665354,5.45,0.61,38.61154366481154,True,9,32.91,5.670289039344262,-2.458074481967213,True
Ada,5.9169853,-0.5699183,130.0,653.0,WorldPop_2020,village/town/hamlet,Odumkyere Darmang Health Centre,Clinic,5.8688274,-0.5422364,6.17,0.63,34.43685201007035,True,13,45.35,6.314441660273973,-0.4781223835616439,True
Ada Boreso,7.3366714,-2.4622167,287.0,204.0,WorldPop_2020,village/town/hamlet,Nwawasua Chips compound,Clinic,7.2923522,-2.4031177,8.17,0.81,122.9478261017704,True,12,41.52,6.964500993939394,-2.4931057818181817,True
Ada Foah,5.781638,0.633197,6.0,11762.0,WorldPop_2020,village/town/hamlet,Ada East District Hospital,Hospital,5.8893838,0.5697255,13.89,0.53,93.9406407292979,True,4,42.12,6.159094553846154,0.6649345371794871,True
Ada Kasseh,5.8975075,0.5219015,19.0,15538.0,WorldPop_2020,village/town/hamlet,Ranstell Pharmacy,Pharmacy,5.898781,0.5225453,0.16,0.81,76.50873429187656,True,4,33.11,6.159094553846154,0.6649345371794871,True
Adaa,5.3593563,-0.8397581,59.0,2774.0,WorldPop_2020,village/town/hamlet,Ngyiresi CHPS Compound,Clinic,5.3511022,-0.8436953,1.02,0.81,102.94527316422344,True,7,71.68,5.636796764853556,-0.2551691866108785,True
Adaa,7.2450603,-1.8520079,271.0,934.0,WorldPop_2020,village/town/hamlet,Adaa CHPS Compound,Clinic,7.2445264,-1.8550088,0.34,0.81,55.6731125238827,True,1,51.68,7.707216,-1.9018804730769232,True
Adaakwa,6.0903335,-0.438686,220.0,969.0,WorldPop_2020,village/town/hamlet,Unnamed Hospital,Hospital,6.040978,-0.4435667,5.51,0.47,12.454075459978649,True,13,25.3,6.314441660273973,-0.4781223835616439,True
Adaase,5.5375411,-1.6706018,75.0,794.0,WorldPop_2020,village/town/hamlet,Unnamed Clinic,Clinic,5.5467418,-1.5469131,13.73,0.61,114.9038912544486,True,2,34.33,5.250318833333333,-1.5568655866666665,True
Adaase,6.2458728,-1.7008848,200.0,794.0,WorldPop_2020,village/town/hamlet,D. B. Twumasi Chemicals OTC Medicine,Pharmacy,6.2132762,-1.6884994,3.87,0.81,87.00970349817544,True,8,53.79,6.714017028571429,-1.578396487755102,True
Adaboi,6.0919261,-1.9852972,131.0,523.0,WorldPop_2020,village/town/hamlet,Site Clinic,Clinic,5.9579531,-1.9327129,15.99,0.53,56.14531835620235,True,9,70.23,5.670289039344262,-2.458074481967213,True
Adabokrom,6.8216033,-3.0193788,252.0,1615.0,WorldPop_2020,village/town/hamlet,Nsowakrom CHPS Compound,Clinic,6.7743332,-3.1318173,13.48,0.53,92.21297739587816,True,12,60.23,6.964500993939394,-2.4931057818181817,True
Adaboso,6.4034534,0.2006963,79.0,256.0,WorldPop_2020,village/town/hamlet,Unnamed Pharmacy,Pharmacy,6.3663386,0.1838588,4.53,0.61,10.310676284457246,True,4,58.06,6.159094553846154,0.6649345371794871,True
Adabraka,5.5624581,-0.2128919,21.0,36510.0,OSM,suburb,Atta Quarshie Merton Memorial Hospital,Hospital,5.5619488,-0.2137769,0.11,0.81,75.36826103905035,False,7,9.5,5.636796764853556,-0.2551691866108785,True
Adadeentam No.1,5.5364289,-1.2378073,122.0,352.0,WorldPop_2020,village/town/hamlet,Ankaako CHPS Compound,Clinic,5.3891941,-1.4548716,29.07,0.81,114.5136488746062,True,2,47.54,5.250318833333333,-1.5568655866666665,True
Adadeentam No.2,5.5319598,-1.2446952,119.0,408.0,WorldPop_2020,village/town/hamlet,Ankaako CHPS Compound,Clinic,5.3891941,-1.4548716,28.16,0.81,115.41585810590033,True,2,46.64,5.250318833333333,-1.5568655866666665,True
Adadeentam No.3,5.5305502,-1.2484449,119.0,374.0,WorldPop_2020,village/town/hamlet,Ankaako CHPS Compound,Clinic,5.3891941,-1.4548716,27.73,0.81,115.83434832289473,True,2,46.22,5.250318833333333,-1.5568655866666665,True
Adadeentam No.4,5.5369255,-1.2540937,130.0,331.0,WorldPop_2020,village/town/hamlet,Ankaako CHPS Compound,Clinic,5.3891941,-1.4548716,27.64,0.81,115.86516175992016,True,2,46.25,5.250318833333333,-1.5568655866666665,True
Adadekrom,6.429617,-0.9589863,182.0,755.0,WorldPop_2020,village/town/hamlet,Atta & Atta Pharmacy,Pharmacy,6.4675102,-0.8914768,8.57,0.53,62.04047140149755,True,13,54.66,6.314441660273973,-0.4781223835616439,True
Adadie,6.6542515,-0.926028,243.0,260.0,WorldPop_2020,isolated_dwelling,Apradang Clinic,Hospital,6.5486346,-0.8663086,13.47,0.53,67.36741280385544,True,13,62.26,6.314441660273973,-0.4781223835616439,True
Adadiem,8.082682,-2.5519424,295.0,2210.0,WorldPop_2020,village/town/hamlet,Unnamed Clinic,Clinic,7.9719256,-2.6189741,14.36,0.33,171.75397965207728,True,1,82.88,7.707216,-1.9018804730769232,False
Adadientam,6.1678143,-0.5761814,333.0,2894.0,WorldPop_2020,village/town/hamlet,Kibi Government Hospital,Hospital,6.1670503,-0.5552595,2.31,0.53,14.894108349088931,True,13,19.58,6.314441660273973,-0.4781223835616439,True
Adadientem,6.7146045,-1.4283299,257.0,5105.0,WorldPop_2020,village/town/hamlet,Roseth community eye care,Hospital,6.7176919,-1.4656783,4.14,0.82,37.88600778502448,True,8,16.57,6.714017028571429,-1.578396487755102,True
Adafienu,6.0911635,1.1369958,7.0,6025.0,WorldPop_2020,village/town/hamlet,Sape Agbo Memorial Hospital,Hospital,6.0972708,1.142875,0.94,0.53,116.44050618426512,True,4,52.73,6.159094553846154,0.6649345371794871,True
Adagya,6.616831,-1.5824183,239.0,17413.0,WorldPop_2020,village/town/hamlet,Kumasi South Urban Health Centre,Hospital,6.6510373,-1.5859483,3.82,0.53,53.07065994986702,True,8,10.82,6.714017028571429,-1.578396487755102,True
Adagya No.1,6.8766623,-1.419189,348.0,85.0,WorldPop_2020,village/town/hamlet,Esthmark Pharmacy,Pharmacy,6.8462455,-1.4071821,3.63,0.67,20.01641259075681,True,8,25.22,6.714017028571429,-1.578396487755102,True
Adagya No.2,6.8793438,-1.4165524,352.0,98.0,WorldPop_2020,village/town/hamlet,Esthmark Pharmacy,Pharmacy,6.8462455,-1.4071821,3.82,0.67,19.672207759812213,True,8,25.64,6.714017028571429,-1.578396487755102,True
Adagyamem,7.2730581,-2.0855563,297.0,474.0,WorldPop_2020,village/town/hamlet,Asuboi chips compound,Clinic,7.2994445,-2.0487166,5.01,0.81,81.01518724215012,True,1,52.35,7.707216,-1.9018804730769232,True
Adahoma,6.603074,-0.6955665,480.0,812.0,WorldPop_2020,village/town/hamlet,Asakraka Clinic,Hospital,6.6321641,-0.6845805,3.45,0.53,52.16776205713499,True,13,40.09,6.314441660273973,-0.4781223835616439,True
Adakabo,5.6545644,-1.5589777,82.0,50.0,GeoNames/OSM,village/town/hamlet,Mmaa Baasa CHPS Compound,Clinic,5.6520981,-1.5721956,1.49,0.92,117.91847041313672,True,2,44.95,5.250318833333333,-1.5568655866666665,True
Adaklu,6.5763679,0.5867124,90.0,516.0,WorldPop_2020,village/town/hamlet,Fountain Medical Services,Hospital,6.5959653,0.5180955,7.89,0.81,47.91423188857381,True,4,47.2,6.159094553846154,0.6649345371794871,True
Adaklu Abuadi,6.497082,0.5136878,116.0,695.0,WorldPop_2020,village/town/hamlet,Nurifafa Health Centre,Health_Post,6.4977621,0.5132416,0.09,0.67,38.85655541400477,True,4,41.13,6.159094553846154,0.6649345371794871,True
Adaklu Agblefe,6.5047847,0.4882434,94.0,632.0,WorldPop_2020,village/town/hamlet,Tsrefe Chps Compound,Health_Post,6.5154303,0.4978602,1.59,0.67,36.07525746972312,True,4,43.11,6.159094553846154,0.6649345371794871,True
Adaklu Ahunda (Hpodzi),6.2994147,0.5469561,74.0,927.0,WorldPop_2020,village/town/hamlet,Adaklu Ahunda Health Centre,Clinic,6.2884718,0.5447816,1.24,0.81,47.39522301005271,True,4,20.34,6.159094553846154,0.6649345371794871,True
Adaklu Ahunda Boso,6.2917453,0.5451214,74.0,1105.0,WorldPop_2020,village/town/hamlet,Adaklu Ahunda Health Centre,Clinic,6.2884718,0.5447816,0.37,0.81,47.59514838019071,True,4,19.82,6.159094553846154,0.6649345371794871,True
Adaklu Anfoe,6.4643305,0.6409075,65.0,548.0,WorldPop_2020,village/town/hamlet,Adaklu Waya Health Centre,Health_Center,6.4482099,0.6239661,2.59,0.67,52.98592897431478,True,4,34.04,6.159094553846154,0.6649345371794871,True
Adaklu Goefe,6.5150354,0.4983179,92.0,1289.0,WorldPop_2020,village/town/hamlet,Tsrefe Chps Compound,Health_Post,6.5154303,0.4978602,0.07,0.67,37.259973794878434,True,4,43.65,6.159094553846154,0.6649345371794871,True
Adaklu Hasu,6.4884761,0.4893367,105.0,320.0,WorldPop_2020,village/town/hamlet,Hasu Community Polyclinic,Health_Post,6.489972,0.4875221,0.26,0.67,36.15178949074389,True,4,41.45,6.159094553846154,0.6649345371794871,True
Adaklu Hehepkoe,6.393518,0.5258877,62.0,313.0,WorldPop_2020,village/town/hamlet,Kpetsu Chps Compound,Health_Post,6.4264214,0.5145353,3.87,0.67,41.54816227938797,True,4,30.26,6.159094553846154,0.6649345371794871,True
Adaklu Helekpe,6.4891586,0.4893861,105.0,309.0,WorldPop_2020,village/town/hamlet,Hasu Community Polyclinic,Health_Post,6.489972,0.4875221,0.22,0.67,36.15730261072088,True,4,41.51,6.159094553846154,0.6649345371794871,True
Adaklu Kodiabe,6.4900443,0.5016264,213.0,378.0,WorldPop_2020,village/town/hamlet,Kodiabe Chps Compound,Health_Post,6.4899944,0.5044587,0.31,0.67,37.51149819109561,True,4,40.99,6.159094553846154,0.6649345371794871,True
Adaklu Komlakofe,6.4898427,0.5096572,203.0,661.0,WorldPop_2020,village/town/hamlet,Kodiabe Chps Compound,Health_Post,6.4899944,0.5044587,0.57,0.67,38.39969891406522,True,4,40.58,6.159094553846154,0.6649345371794871,True
Adaklu Sikama,6.4808624,0.4956544,95.0,426.0,WorldPop_2020,village/town/hamlet,Hasu Community Polyclinic,Health_Post,6.489972,0.4875221,1.35,0.67,36.86055235294218,True,4,40.38,6.159094553846154,0.6649345371794871,True
Adaklu Sofa,6.3859625,0.644901,60.0,841.0,WorldPop_2020,village/town/hamlet,Adaklu Sofa Health Centre,Health_Center,6.3837737,0.6386428,0.73,0.67,54.55576636541708,True,4,25.32,6.159094553846154,0.6649345371794871,True
Adaklu Tokor,6.4896091,0.5096716,203.0,661.0,WorldPop_2020,village/town/hamlet,Kodiabe Chps Compound,Health_Post,6.4899944,0.5044587,0.58,0.67,38.40120934471041,True,4,40.56,6.159094553846154,0.6649345371794871,True
Adaklu Tsrefe,6.5089031,0.4959337,98.0,1186.0,WorldPop_2020,village/town/hamlet,Tsrefe Chps Compound,Health_Post,6.5154303,0.4978602,0.76,0.67,36.94970441866455,True,4,43.15,6.159094553846154,0.6649345371794871,True
Adaklu Waya,6.4470511,0.6286474,61.0,1063.0,WorldPop_2020,village/town/hamlet,Adaklu Waya Health Centre,Health_Center,6.4482099,0.6239661,0.53,0.67,51.76654765871994,True,4,32.27,6.159094553846154,0.6649345371794871,True
Adako Jachie,6.723451,-1.5105879,293.0,6907.0,WorldPop_2020,village/town/hamlet,Panacea Pharmacy,Pharmacy,6.7157419,-1.5045239,1.09,0.81,39.13408110281608,True,8,7.56,6.714017028571429,-1.578396487755102,True
Adakordzi,5.7748481,0.8162606,6.0,1970.0,WorldPop_2020,village/town/hamlet,Atorkor Clinic,Hospital,5.776355,0.8217025,0.62,0.53,107.07358097085032,True,4,45.89,6.159094553846154,0.6649345371794871,True
Adakuma,5.8649784,-0.9328052,172.0,1356.0,WorldPop_2020,village/town/hamlet,Achiase Health Centre,Hospital,5.8447952,-1.0011211,7.88,0.63,65.55043505461758,True,13,70.89,6.314441660273973,-0.4781223835616439,True
Adakyi,6.6237308,-0.3954381,94.0,289.0,WorldPop_2020,village/town/hamlet,Dortorpong Sikasu CHPs Compound,CHPS,6.7377159,-0.3456442,13.82,0.67,46.898435600234045,True,13,35.58,6.314441660273973,-0.4781223835616439,True
Adamakrom,7.338,-2.1208146,303.0,373.0,WorldPop_2020,isolated_dwelling,Asuboi chips compound,Clinic,7.2994445,-2.0487166,9.03,0.81,87.0560017089869,True,1,47.62,7.707216,-1.9018804730769232,True
Adamo Kura,8.0244993,0.0555137,97.0,411.0,WorldPop_2020,isolated_dwelling,Unnamed Pharmacy,Pharmacy,8.144827,-0.1540547,26.67,0.61,26.13774099731441,True,10,36.72,8.31955012745098,0.20536231960784324,True
Adamorobe,5.8290207,-0.142782,100.0,2491.0,WorldPop_2020,village/town/hamlet,Unnamed Pharmacy,Pharmacy,5.8229134,-0.1218929,2.41,0.33,53.2545943118915,True,7,24.73,5.636796764853556,-0.2551691866108785,True
Adampase,6.5209499,-0.772782,271.0,1268.0,WorldPop_2020,village/town/hamlet,Agyakwa Hospital,Hospital,6.5383131,-0.7672648,2.02,0.53,50.44023329007226,True,13,39.84,6.314441660273973,-0.4781223835616439,True
Adamsu,7.743899,-2.8092447,343.0,3422.0,WorldPop_2020,village/town/hamlet,Bodaa chips compound,Clinic,7.7813696,-2.8200144,4.33,0.81,174.69396964870842,True,12,93.41,6.964500993939394,-2.4931057818181817,False
Adamu,5.8133913,-0.7558865,181.0,263.0,WorldPop_2020,village/town/hamlet,Essaso CHPS compound,Clinic,5.7645167,-0.6977078,8.42,0.81,55.03658336327757,True,7,58.78,5.636796764853556,-0.2551691866108785,True
Adamukurom,5.8177802,-0.3463925,50.0,48885.0,GeoNames/OSM,village/town/hamlet,Losab Pharmacy,Pharmacy,5.8101264,-0.3436711,0.9,0.81,43.97773420023583,True,7,22.51,5.636796764853556,-0.2551691866108785,True
Adankrono,6.0821534,-0.8294258,142.0,30233.0,GeoNames/OSM,village/town/hamlet,Kade Government Hospital,Hospital,6.1007397,-0.8396296,2.35,0.53,44.4626991438468,True,13,46.64,6.314441660273973,-0.4781223835616439,True
Adankwame,6.800603,-1.7136624,267.0,3440.0,WorldPop_2020,village/town/hamlet,Pearllane Pharmacy Ltd.,Pharmacy,6.7459266,-1.7404031,6.76,0.81,45.86526866609761,True,8,17.77,6.714017028571429,-1.578396487755102,True
Adansi Anhwiaso,6.1446019,-1.4704986,155.0,3408.0,WorldPop_2020,village/town/hamlet,SDA Hospital,Hospital,6.19789,-1.63915,19.56,0.81,101.0627582076638,True,8,64.43,6.714017028571429,-1.578396487755102,True
Adansi Asokwa,6.2467263,-1.50841,215.0,4639.0,WorldPop_2020,village/town/hamlet,SDA Hospital,Hospital,6.19789,-1.63915,15.44,0.81,90.35895926098924,True,8,52.53,6.714017028571429,-1.578396487755102,True
Adansi Kyekyewere,6.2431687,-1.668447,237.0,6950.0,WorldPop_2020,village/town/hamlet,D. B. Twumasi Chemicals OTC Medicine,Pharmacy,6.2132762,-1.6884994,4.0,0.81,90.56561048112846,True,8,53.29,6.714017028571429,-1.578396487755102,True
Adansi Praso,5.9361626,-1.368052,90.0,4190.0,WorldPop_2020,village/town/hamlet,Clinic,Clinic,5.6835098,-1.4960854,31.46,0.81,106.22012563125996,True,2,79.07,5.250318833333333,-1.5568655866666665,True
Adansua,6.600451,-0.882649,224.0,946.0,WorldPop_2020,village/town/hamlet,Apradang Clinic,Hospital,6.5486346,-0.8663086,6.04,0.53,65.31602428132756,True,13,54.86,6.314441660273973,-0.4781223835616439,True
Adantia,7.3881972,-2.2869882,272.0,2039.0,WorldPop_2020,village/town/hamlet,TTL Pharmacy,Pharmacy,7.3648414,-2.3154087,4.07,0.81,106.18178140177814,True,12,52.31,6.964500993939394,-2.4931057818181817,True
Adanwomase,6.8125318,-1.4756719,328.0,700.0,WorldPop_2020,village/town/hamlet,Unnamed Hospital,Hospital,6.8328495,-1.5050376,3.95,0.33,28.5545891136831,True,8,15.77,6.714017028571429,-1.578396487755102,True
Adape,8.6757533,-1.673272,96.0,146.0,WorldPop_2020,village/town/hamlet,Unnamed Health_Center,Health_Center,8.656838,-1.5231321,16.64,0.47,182.0893435220687,True,1,110.6,7.707216,-1.9018804730769232,False
Adaprase,7.9507039,-1.2592893,147.0,4146.0,WorldPop_2020,village/town/hamlet,Zambrama Ghana Health Service,Hospital,7.9917055,-1.3979506,15.94,0.53,100.08820492649669,True,1,75.79,7.707216,-1.9018804730769232,True
Adaribea,10.3622622,-0.292173,177.0,261.0,WorldPop_2020,village/town/hamlet,Baptist Medical Center Nalerigu,Hospital,10.515869,-0.3640743,18.8,0.53,56.02514662359093,True,11,69.55,10.73173961451613,-0.8055273370967743,True
Adarkwaa,6.6126567,-0.5680703,366.0,314.0,WorldPop_2020,village/town/hamlet,st joseph's clinic an maternity home,Clinic,6.6519796,-0.6662393,11.69,0.83,47.29858833879988,True,13,34.62,6.314441660273973,-0.4781223835616439,True
Adasawase,6.4093534,-0.5166444,198.0,3833.0,WorldPop_2020,village/town/hamlet,CHPS Compound,Hospital,6.3696878,-0.5306782,4.68,0.53,24.146045025529748,True,13,11.38,6.314441660273973,-0.4781223835616439,True
Adasimase,5.6930678,-0.6968276,128.0,697.0,WorldPop_2020,village/town/hamlet,Agnes Doris Pharmacy,Pharmacy,5.6388504,-0.7247921,6.78,0.81,62.819934588321296,True,7,49.27,5.636796764853556,-0.2551691866108785,True
Adasua,6.5760929,-0.867652,224.0,301.0,WorldPop_2020,village/town/hamlet,Apradang Clinic,Hospital,6.5486346,-0.8663086,3.06,0.53,62.28243392865435,True,13,51.95,6.314441660273973,-0.4781223835616439,True
Adausena,6.3475114,-1.0522898,182.0,6362.0,WorldPop_2020,village/town/hamlet,Tiawiah CHPS Compound,Clinic,6.4138806,-0.8676785,21.69,0.91,68.95345637667982,True,13,63.56,6.314441660273973,-0.4781223835616439,True
Adawso,5.9510107,-0.2141938,134.0,5323.0,WorldPop_2020,village/town/hamlet,Tetteh Quarshie Hospital,Hospital,5.9216374,-0.1323741,9.62,0.53,37.87216382615668,True,7,35.23,5.636796764853556,-0.2551691866108785,True
Adawso,6.7152783,-0.5097617,86.0,1462.0,WorldPop_2020,village/town/hamlet,Asaaseboma CHPs Compound,Health_Post,6.7453453,-0.3607664,16.79,0.67,57.119567095420514,True,13,44.71,6.314441660273973,-0.4781223835616439,True
Adawukwao,5.6703633,-0.5181955,126.0,4779.0,WorldPop_2020,village/town/hamlet,Adawukwao CHIPS Compound,Clinic,5.6721049,-0.5151614,0.39,0.92,59.406371216539,True,7,29.34,5.636796764853556,-0.2551691866108785,True
Adayili,9.6854819,-0.9732813,112.0,745.0,WorldPop_2020,village/town/hamlet,Bontanga hospital,Hospital,9.5792913,-0.9950347,12.05,0.53,75.49959406510823,True,6,28.54,9.432527868333334,-1.01728251,True
Adayili,9.8012369,-0.9477316,114.0,1158.0,WorldPop_2020,village/town/hamlet,Unnamed Pharmacy,Pharmacy,9.8625151,-0.870556,10.86,0.61,62.401865883309455,True,6,41.7,9.432527868333334,-1.01728251,True
Adayiri,9.7222255,-1.252031,111.0,90.0,WorldPop_2020,village/town/hamlet,Bontanga hospital,Hospital,9.5792913,-0.9950347,32.35,0.53,84.8134045879671,True,6,41.23,9.432527868333334,-1.01728251,True
Addaekrom,6.5288269,-2.2894819,195.0,526.0,WorldPop_2020,village/town/hamlet,180 Plus Pharmacy,Pharmacy,6.4589467,-2.310808,8.12,0.83,44.00739591257917,True,12,53.41,6.964500993939394,-2.4931057818181817,True
Addaikro,7.7751179,-1.269629,127.0,215.0,WorldPop_2020,village/town/hamlet,Kumfia Healthcare,Clinic,7.779132,-1.2251245,4.92,0.81,80.71515928583536,True,1,70.07,7.707216,-1.9018804730769232,True
Addo Nkwanta,5.9316638,-0.15895,175.0,826.0,WorldPop_2020,village/town/hamlet,Tetteh Quarshie Hospital,Hospital,5.9216374,-0.1323741,3.14,0.53,43.69816304051128,True,7,34.47,5.636796764853556,-0.2551691866108785,True
Addo Nkwanta,6.1710323,-0.4260058,198.0,2100.0,WorldPop_2020,village/town/hamlet,Christ is the Answer Licensed Over the Counter Medicine Seller,Pharmacy,6.1709673,-0.4269534,0.11,0.53,4.154458735275909,True,13,16.96,6.314441660273973,-0.4781223835616439,True
Addo Nkwanta,7.6727732,0.324011,149.0,2117.0,WorldPop_2020,village/town/hamlet,Katanga CHPs Compound,Clinic,7.6585713,0.3332999,1.88,0.81,39.62479643612328,True,10,73.1,8.31955012745098,0.20536231960784324,True
Addogonno,5.6168453,-0.0916994,31.0,32828.0,WorldPop_2020,suburb,Origin Chemist,Pharmacy,5.6161822,-0.0920026,0.08,0.82,75.75158720702109,False,7,18.22,5.636796764853556,-0.2551691866108785,True
Addokope,5.8928331,0.494087,23.0,2775.0,WorldPop_2020,village/town/hamlet,Ranstell Pharmacy,Pharmacy,5.898781,0.5225453,3.22,0.81,75.40570605803599,True,4,35.12,6.159094553846154,0.6649345371794871,True
Adeade,6.1829871,-2.0908876,144.0,555.0,WorldPop_2020,village/town/hamlet,JUABO,Clinic,6.0933179,-2.2142397,16.89,0.53,43.563717178597656,True,9,70.0,5.670289039344262,-2.458074481967213,True
Adeambra,7.9221335,-0.7016241,129.0,308.0,WorldPop_2020,village/town/hamlet,"Rahma Pharmacy Limited, Yeji",Pharmacy,8.22882,-0.6501933,34.57,0.82,77.22503574777323,True,10,109.18,8.31955012745098,0.20536231960784324,False
Adebiaweh Madovunu,5.969275,0.4255325,16.0,603.0,WorldPop_2020,village/town/hamlet,Unnamed Pharmacy,Pharmacy,6.0269096,0.3754811,8.47,0.61,64.37661074755052,True,4,33.86,6.159094553846154,0.6649345371794871,True
Adedenkpo,5.5438586,-0.2192545,12.0,67089.0,WorldPop_2020,suburb,Syrene Health Services,Pharmacy,5.5446575,-0.213842,0.61,0.81,77.07119345606392,False,7,11.07,5.636796764853556,-0.2551691866108785,True
Adedetsekope,5.9304218,0.4982257,28.0,1667.0,WorldPop_2020,village/town/hamlet,Ranstell Pharmacy,Pharmacy,5.898781,0.5225453,4.43,0.81,72.03742685431465,True,4,31.41,6.159094553846154,0.6649345371794871,True
Adeemmbra,6.491227,-2.9441485,145.0,100.0,WorldPop_2020,village/town/hamlet,CHPS Compound,Clinic,6.4507913,-2.9733155,5.53,0.81,61.28520030428337,True,12,72.46,6.964500993939394,-2.4931057818181817,True
Adeemmra,6.5372668,-2.6087912,243.0,761.0,WorldPop_2020,village/town/hamlet,Asarekrom CHPS,Clinic,6.5762288,-2.6390223,5.47,0.81,41.62529720838339,True,12,49.19,6.964500993939394,-2.4931057818181817,True
Adeemra,7.0604743,-0.0558924,192.0,4138.0,WorldPop_2020,village/town/hamlet,Adeemmra Health Centre,Health_Center,7.059876,-0.0556747,0.07,0.67,67.70521340688546,True,0,46.32,7.010195706040268,0.36073386979865807,True
Adeesena,6.7637813,-1.5142867,315.0,784.0,WorldPop_2020,village/town/hamlet,Panacea Pharmacy,Pharmacy,6.7157419,-1.5045239,5.45,0.81,35.16028478957672,True,8,8.99,6.714017028571429,-1.578396487755102,True
Adeesu,7.5368314,-1.9978033,421.0,306.0,WorldPop_2020,village/town/hamlet,Nkwaeso Health Center,Clinic,7.5504484,-1.9899652,1.74,0.81,86.12132174447252,True,1,21.7,7.707216,-1.9018804730769232,True
Adeeyepena,6.6720245,-2.7232363,293.0,396.0,WorldPop_2020,village/town/hamlet,Asumura Rural Clinic,Health_Center,6.7046201,-2.7640454,5.78,0.67,60.28386811111133,True,12,41.27,6.964500993939394,-2.4931057818181817,True
Adeeyepena,6.9875821,-2.764403,227.0,212.0,WorldPop_2020,village/town/hamlet,Ahmadiyya,Clinic,6.8940491,-2.5651706,24.33,0.53,94.31284389392876,True,12,30.05,6.964500993939394,-2.4931057818181817,True
Adehemamota,6.6639362,-0.8744431,233.0,362.0,WorldPop_2020,village/town/hamlet,Apradang Clinic,Hospital,6.5486346,-0.8663086,12.85,0.53,69.6131405126353,True,13,58.54,6.314441660273973,-0.4781223835616439,True
Adeiso,5.7971342,-0.4872364,77.0,14679.0,WorldPop_2020,village/town/hamlet,Adeiso Polyclinic,Clinic,5.7995879,-0.4906689,0.47,0.63,45.0795955701664,True,7,31.26,5.636796764853556,-0.2551691866108785,True
Adeito,6.4435992,-1.3882577,433.0,649.0,WorldPop_2020,village/town/hamlet,Richard Fowler Catholic Clinic,Clinic,6.4679724,-1.4723001,9.67,0.53,67.55997699273851,True,8,36.68,6.714017028571429,-1.578396487755102,True
Adekesua,6.0954229,-1.1832736,111.0,819.0,WorldPop_2020,village/town/hamlet,School Clinic,Clinic,5.9697837,-0.9931264,25.24,0.53,82.43976887987245,True,8,81.47,6.714017028571429,-1.578396487755102,False
Adelekezo,4.9450375,-2.19131,13.0,200.0,WorldPop_2020,village/town/hamlet,Axim Governmenr Hospital,Hospital,4.8667635,-2.2378492,10.12,0.53,140.59345545227205,True,2,78.04,5.250318833333333,-1.5568655866666665,True
Ademu,5.8848382,-0.5851896,131.0,523.0,WorldPop_2020,village/town/hamlet,Odumkyere Darmang Health Centre,Clinic,5.8688274,-0.5422364,5.07,0.63,38.37139881306937,True,7,45.76,5.636796764853556,-0.2551691866108785,True
Adenkrebi,5.7784854,-0.200074,343.0,1016.0,WorldPop_2020,village/town/hamlet,Cyrus Physiotherapy and Rehabilitation Centre,Other,5.7626169,-0.192819,1.94,0.47,54.25244352210966,True,7,16.89,5.636796764853556,-0.2551691866108785,True
Adenkurom,5.843603,-1.1399174,140.0,271.0,WorldPop_2020,village/town/hamlet,Achiase Health Centre,Hospital,5.8447952,-1.0011211,15.35,0.63,86.45996937914782,True,2,80.51,5.250318833333333,-1.5568655866666665,False
Adenkyekye,6.9877247,-2.7437155,225.0,145.0,WorldPop_2020,village/town/hamlet,Ahmadiyya,Clinic,6.8940491,-2.5651706,22.29,0.53,93.60193221387712,True,12,27.78,6.964500993939394,-2.4931057818181817,True
Adense,6.761544,-1.4945698,294.0,653.0,WorldPop_2020,village/town/hamlet,George & Angelina,Clinic,6.7433264,-1.458069,4.51,0.81,34.567855535696474,True,8,10.66,6.714017028571429,-1.578396487755102,True
Adensi,7.7539261,-1.1256802,124.0,504.0,WorldPop_2020,village/town/hamlet,Kumfia Healthcare,Clinic,7.7794723,-1.2247689,11.28,0.81,82.49832930284568,True,1,85.68,7.707216,-1.9018804730769232,False
Adensu,6.3707789,-0.1875508,300.0,394.0,WorldPop_2020,village/town/hamlet,Asesewa Government Hospital,Hospital,6.4017208,-0.146631,5.68,0.95,34.12677220459589,True,13,32.72,6.314441660273973,-0.4781223835616439,True
Adenta,5.7042433,-0.1690967,81.0,96478.0,GeoNames/OSM,village/town/hamlet,NGPACK Pharmacy,Pharmacy,5.7046943,-0.1711167,0.23,0.81,63.08602434367321,True,7,12.12,5.636796764853556,-0.2551691866108785,True
Adenta West,5.700344,-0.1854238,57.0,11748.0,WorldPop_2020,suburb,Equa Chemical Shop,Pharmacy,5.7003225,-0.1800937,0.59,0.81,62.60920942322177,False,7,10.46,5.636796764853556,-0.2551691866108785,True
Adenya,5.9655616,-0.175851,235.0,994.0,WorldPop_2020,village/town/hamlet,Tetteh Quarshie Hospital,Hospital,5.9216374,-0.1323741,6.85,0.53,39.79101327562319,True,7,37.6,5.636796764853556,-0.2551691866108785,True
Adenyasi,6.7064479,-1.5792713,257.0,50435.0,WorldPop_2020,suburb,Unnamed Hospital,Hospital,6.7067929,-1.5676185,1.29,0.33,44.04794599040787,False,8,0.85,6.714017028571429,-1.578396487755102,True
Adesa,5.9086267,-0.309276,51.0,857.0,WorldPop_2020,village/town/hamlet,Ever Care Pharmacy,Pharmacy,5.8102892,-0.3351267,11.3,0.81,35.87961737327085,True,7,30.81,5.636796764853556,-0.2551691866108785,True
Adesawe,5.5751326,-0.1904094,43.0,66528.0,WorldPop_2020,neighbourhood,Sterada Pharmacy Limited,Pharmacy,5.5757875,-0.188781,0.19,0.82,74.95792485873572,False,7,9.92,5.636796764853556,-0.2551691866108785,True
Adiakyi,6.9149521,-0.2490793,201.0,254.0,WorldPop_2020,village/town/hamlet,Tease Health Centre,Health_Center,6.9360659,-0.252574,2.38,0.67,65.53576712541133,True,0,68.14,7.010195706040268,0.36073386979865807,True
Adibo,9.3013271,0.0181119,221.0,1437.0,WorldPop_2020,village/town/hamlet,Unnamed Pharmacy,Pharmacy,9.2826508,0.0185152,2.08,0.61,146.62826397136774,True,3,44.41,9.697704974074075,0.06749332962962973,True
Adidiso,6.0689966,-0.3521177,172.0,473.0,WorldPop_2020,village/town/hamlet,Newlands Medical Centre,Clinic,6.0824943,-0.2753886,8.62,0.82,18.08491999404645,True,13,30.64,6.314441660273973,-0.4781223835616439,True
Adidome,6.0730516,0.5031509,19.0,8014.0,WorldPop_2020,village/town/hamlet,Adidome Hospital,Hospital,6.0728658,0.4982077,0.55,0.53,59.42814065302453,True,4,20.29,6.159094553846154,0.6649345371794871,True
Adidwan,7.2526292,-1.4022002,191.0,1825.0,WorldPop_2020,village/town/hamlet,kofiase health clinic,Clinic,7.1412636,-1.4834676,15.29,0.81,21.988918068927116,True,8,62.97,6.714017028571429,-1.578396487755102,True
Adidwan,7.4547535,-1.1084207,122.0,217.0,WorldPop_2020,village/town/hamlet,Kumfia Healthcare,Clinic,7.779132,-1.2251245,38.29,0.81,53.81145492277144,True,1,91.85,7.707216,-1.9018804730769232,False
Adie Kura,5.9672556,-0.9020081,129.0,460.0,WorldPop_2020,village/town/hamlet,School Clinic,Clinic,5.9697837,-0.9931264,10.08,0.53,56.77821355795336,True,13,60.72,6.314441660273973,-0.4781223835616439,True
Adiebeba,6.6640774,-1.6156527,256.0,67558.0,WorldPop_2020,suburb,Unnamed Pharmacy,Pharmacy,6.6580499,-1.6191752,0.77,0.61,50.11335611910164,False,8,6.91,6.714017028571429,-1.578396487755102,True
Adiembra,5.1610033,-1.6087767,43.0,234.0,WorldPop_2020,village/town/hamlet,Daboase Clinic,Clinic,5.1338409,-1.6561212,6.05,0.53,148.8586313601271,True,2,11.48,5.250318833333333,-1.5568655866666665,True
Adiembra,5.5695829,-0.1537228,22.0,69685.0,WorldPop_2020,neighbourhood,Unnamed Clinic,Clinic,5.5690457,-0.1475528,0.69,0.61,77.14211608528082,False,7,13.49,5.636796764853556,-0.2551691866108785,True
Adiembra,5.6538861,-1.3348914,123.0,3876.0,WorldPop_2020,village/town/hamlet,Clinic,Clinic,5.6835098,-1.4960854,18.14,0.81,115.61365229285394,True,2,51.16,5.250318833333333,-1.5568655866666665,True
Adiembra,5.8090786,-0.7192954,169.0,996.0,WorldPop_2020,village/town/hamlet,Essaso CHPS compound,Clinic,5.7645167,-0.6977078,5.5,0.81,52.999497613531645,True,7,54.81,5.636796764853556,-0.2551691866108785,True
Adiembra,6.6028299,-2.0381051,169.0,1568.0,WorldPop_2020,village/town/hamlet,Nyinahin Hospital,Hospital,6.6008109,-2.1097935,7.92,0.53,67.85850489713097,True,8,52.26,6.714017028571429,-1.578396487755102,True
Adiembra,6.6575157,-1.6344792,250.0,91438.0,WorldPop_2020,suburb,Atasomanso hospital,Hospital,6.6521749,-1.6332336,0.61,0.82,51.81452116392583,False,8,8.82,6.714017028571429,-1.578396487755102,True
Adiembra,6.7399971,-1.2078895,216.0,465.0,WorldPop_2020,village/town/hamlet,Achievers Medical Centre/Pharmacy,Clinic,6.6252406,-1.2075522,12.76,0.67,39.93778953122813,True,8,41.02,6.714017028571429,-1.578396487755102,True
Adiembra,7.2459954,-2.5457007,307.0,681.0,WorldPop_2020,village/town/hamlet,Mw,Clinic,7.2206418,-2.6417699,10.97,0.81,117.86108887362174,True,12,31.83,6.964500993939394,-2.4931057818181817,True
Adiembra No.3,6.9520196,-3.1308641,249.0,481.0,WorldPop_2020,village/town/hamlet,Massakrom CHPS,Clinic,6.9216504,-3.1660639,5.15,0.53,111.1815816196706,True,12,70.41,6.964500993939394,-2.4931057818181817,True
Adiembra no 3,6.9740253,-3.1017023,248.0,447.0,WorldPop_2020,village/town/hamlet,Nkrankwanta Government Hospital,Hospital,7.0205959,-3.0532075,7.45,0.53,111.04436413112286,True,12,67.18,6.964500993939394,-2.4931057818181817,True
Adiemmra,6.9804802,-2.8657432,224.0,1098.0,WorldPop_2020,village/town/hamlet,Nkrankwanta Government Hospital,Hospital,7.0205959,-3.0532075,21.17,0.53,97.85207622500624,True,12,41.17,6.964500993939394,-2.4931057818181817,True
Adienbra New Town,6.1995814,-2.4957142,162.0,7108.0,WorldPop_2020,suburb,Green Shed Hospital,Hospital,6.1947913,-2.3273295,18.62,0.53,2.3066452737396217,False,9,59.0,5.670289039344262,-2.458074481967213,True
Adiepena/Nyame Adom,6.9193602,-2.7193053,258.0,465.0,WorldPop_2020,village/town/hamlet,Ahmadiyya,Clinic,6.8940491,-2.5651706,17.25,0.53,85.57893851568657,True,12,25.47,6.964500993939394,-2.4931057818181817,True
Adiewoso,4.9133128,-2.0135987,56.0,130.0,WorldPop_2020,village/town/hamlet,Unnamed Laboratory,Laboratory,4.9041732,-2.0664777,5.95,0.33,149.68514006822537,True,2,62.95,5.250318833333333,-1.5568655866666665,True
Adimensa,6.165307,-0.1335488,110.0,480.0,WorldPop_2020,village/town/hamlet,Okra Kwadwo Health Centre,Clinic,6.1089919,-0.1057473,6.98,0.63,34.84920159135426,True,13,41.54,6.314441660273973,-0.4781223835616439,True
Adina,6.0504129,1.0827457,2.0,2127.0,WorldPop_2020,village/town/hamlet,Nogokpo CHPS Compound,Clinic,6.0922432,1.0746767,4.74,0.81,112.7694478360908,True,4,47.75,6.159094553846154,0.6649345371794871,True
Adinbya,7.9508619,0.0923324,85.0,1001.0,WorldPop_2020,village/town/hamlet,Kete Krachi Goverment Hospital,Hospital,7.7943838,-0.056682,23.92,0.53,20.47140470863604,True,10,42.84,8.31955012745098,0.20536231960784324,True
Adinkra,6.128978,-1.751461,153.0,1240.0,WorldPop_2020,village/town/hamlet,Unnamed Hospital,Hospital,6.203002,-1.6847518,11.05,0.33,81.3457755987513,True,8,67.81,6.714017028571429,-1.578396487755102,True
Adinkrakrom,7.7850278,-2.6043713,345.0,240.0,WorldPop_2020,village/town/hamlet,Dawiri CHPS Compound,Clinic,7.8268181,-2.682561,9.79,0.81,156.94624789433593,True,1,77.88,7.707216,-1.9018804730769232,True
Adiokor No.2,7.7502129,-2.855193,339.0,1232.0,WorldPop_2020,village/town/hamlet,Bodaa chips compound,Clinic,7.7813696,-2.8200144,5.2,0.81,178.20131502352103,True,12,96.06,6.964500993939394,-2.4931057818181817,False
Adipa,5.8126448,-0.2865458,81.0,1254.0,WorldPop_2020,village/town/hamlet,Samsam Community Clinic,Clinic,5.7775789,-0.3002303,4.18,0.81,46.615880385953325,True,7,19.86,5.636796764853556,-0.2551691866108785,True
Adjakaa,5.7731996,-2.7607888,78.0,551.0,WorldPop_2020,village/town/hamlet,Unnamed Pharmacy,Pharmacy,5.7719154,-2.7441694,1.84,0.61,54.58475810813963,True,9,35.39,5.670289039344262,-2.458074481967213,True
Adjamam,6.493609,-1.3721917,115.0,533.0,WorldPop_2020,village/town/hamlet,Richard Fowler Catholic Clinic,Clinic,6.4679724,-1.4723001,11.42,0.53,62.04623122017819,True,8,33.46,6.714017028571429,-1.578396487755102,True
Adjamesu,6.5226825,-1.6618209,251.0,11048.0,WorldPop_2020,village/town/hamlet,Genak Pharmacy,Pharmacy,6.5890471,-1.6249104,8.43,0.81,66.27269239701091,True,8,23.19,6.714017028571429,-1.578396487755102,True
Adjatey Camp,5.6755089,-1.434027,102.0,300.0,GeoNames/OSM,village/town/hamlet,Clinic,Clinic,5.6835098,-1.4960854,6.92,0.81,123.94502501219584,True,2,49.2,5.250318833333333,-1.5568655866666665,True
Adjei Kojo,5.6819505,-0.0575094,31.0,20346.0,WorldPop_2020,suburb,Santa,Pharmacy,5.6817878,-0.0501367,0.82,0.81,71.89290294272797,False,7,22.44,5.636796764853556,-0.2551691866108785,True
Adjeikrom,6.3039161,-0.3947813,240.0,704.0,WorldPop_2020,village/town/hamlet,New Tafo Government Hospital,Hospital,6.2308156,-0.3660381,8.73,0.93,12.556485411417418,True,13,9.29,6.314441660273973,-0.4781223835616439,True
Adjeikrom,7.1382286,-1.9465917,335.0,417.0,WorldPop_2020,village/town/hamlet,Mansion chips compound,Clinic,7.1176474,-1.9861942,4.93,0.81,62.67294862440798,True,8,62.26,6.714017028571429,-1.578396487755102,True
Adjeikrom,7.4867875,-1.8353444,341.0,1709.0,WorldPop_2020,village/town/hamlet,Amoako Health City,Hospital,7.5371705,-1.9417206,13.0,0.53,68.94420010868998,True,1,25.58,7.707216,-1.9018804730769232,True
Adjen Kotoku,5.7363349,-0.3605708,51.0,5886.0,WorldPop_2020,village/town/hamlet,Kotoku Clinic,Clinic,5.7363698,-0.3594848,0.12,0.81,52.43778173979764,True,7,16.08,5.636796764853556,-0.2551691866108785,True
Adjetey Kura,5.8752878,-0.8140276,200.0,494.0,WorldPop_2020,village/town/hamlet,Asamankese Government Hospital,Hospital,5.8539806,-0.6786598,15.16,0.53,54.48983935057025,True,13,61.35,6.314441660273973,-0.4781223835616439,True
Adjiringanor,5.6457856,-0.1340291,61.0,10143.0,WorldPop_2020,suburb,Zizi's Pharmacy,Pharmacy,5.6480879,-0.1330656,0.28,0.81,70.62422285594269,False,7,13.44,5.636796764853556,-0.2551691866108785,True
Adjoafua,6.590565,-3.0087473,218.0,2680.0,WorldPop_2020,village/town/hamlet,CHPS Compound,Clinic,6.4507913,-2.9733155,16.03,0.81,73.5210258862632,True,12,70.5,6.964500993939394,-2.4931057818181817,True
Adjoum,5.6917049,-2.6575584,110.0,467.0,WorldPop_2020,village/town/hamlet,Unnamed Clinic,Clinic,5.6933633,-2.653375,0.5,0.61,57.50632597328256,True,9,22.2,5.670289039344262,-2.458074481967213,True
Adjumako,4.9212393,-2.0259157,43.0,309.0,WorldPop_2020,village/town/hamlet,Unnamed Laboratory,Laboratory,4.9041732,-2.0664777,4.88,0.33,148.3909676145,True,2,63.54,5.250318833333333,-1.5568655866666665,True
Adoagyiri,5.8185267,-0.3550909,38.0,48885.0,GeoNames/OSM,village/town/hamlet,Losab Pharmacy,Pharmacy,5.8101264,-0.3436711,1.57,0.81,43.66537461068042,True,7,23.03,5.636796764853556,-0.2551691866108785,True
Adoato,6.7071245,-1.649631,275.0,70802.0,WorldPop_2020,suburb,Acolatse Clinic,Clinic,6.7051444,-1.6471662,0.35,0.53,48.249530875907375,False,8,7.9,6.714017028571429,-1.578396487755102,True
Adobease,5.9385987,-0.1698187,170.0,1286.0,WorldPop_2020,village/town/hamlet,Tetteh Quarshie Hospital,Hospital,5.9216374,-0.1323741,4.55,0.53,42.29731276883664,True,7,34.86,5.636796764853556,-0.2551691866108785,True
Adobetor,5.5722898,-0.1600984,39.0,67826.0,WorldPop_2020,suburb,PalmAid Pharmacy,Pharmacy,5.5735786,-0.1592984,0.17,0.81,76.5757222071421,False,7,12.73,5.636796764853556,-0.2551691866108785,True
Adobewora,6.5419659,-2.0133425,186.0,1865.0,WorldPop_2020,village/town/hamlet,Nyinahin Hospital,Hospital,6.6008109,-2.1097935,12.5,0.53,65.58965225713486,True,8,51.71,6.714017028571429,-1.578396487755102,True
Adodoadjikope,5.97182,0.4744935,16.0,855.0,WorldPop_2020,village/town/hamlet,Kpotame Health Centre,Health_Post,5.9766659,0.5257036,5.69,0.67,66.76003108922733,True,4,29.62,6.159094553846154,0.6649345371794871,True
Adoe,7.4583691,-2.3582236,278.0,57.0,WorldPop_2020,village/town/hamlet,Medcourt Pharmacy,Pharmacy,7.3604253,-2.3472325,10.96,0.82,116.3368974184754,True,12,56.9,6.964500993939394,-2.4931057818181817,True
Adoe,7.6222147,-1.7538267,350.0,585.0,WorldPop_2020,village/town/hamlet,St. Theresia Hospital,Hospital,7.570285,-1.7040502,7.97,0.53,74.80538642614141,True,1,18.86,7.707216,-1.9018804730769232,True
Adoklu Kpetsu,6.426572,0.5135287,57.0,302.0,WorldPop_2020,village/town/hamlet,Kpetsu Chps Compound,Health_Post,6.4264214,0.5145353,0.11,0.67,39.42937303908528,True,4,34.13,6.159094553846154,0.6649345371794871,True
Adokurom,6.3212675,-0.4212597,236.0,236.0,WorldPop_2020,village/town/hamlet,Rabitto Pharmacy,Pharmacy,6.2913819,-0.4743928,6.75,0.81,13.399390406249603,True,13,6.33,6.314441660273973,-0.4781223835616439,True
Adokurom,6.4902978,-0.8624482,221.0,381.0,WorldPop_2020,village/town/hamlet,Pankese Community Health Planning and Services,Hospital,6.5081592,-0.8438128,2.86,0.53,55.96922766389738,True,13,46.75,6.314441660273973,-0.4781223835616439,True
Adokurom,6.5748384,-2.5887193,254.0,448.0,WorldPop_2020,village/town/hamlet,Asarekrom CHPS,Clinic,6.5762288,-2.6390223,5.56,0.81,44.94729719863048,True,12,44.6,6.964500993939394,-2.4931057818181817,True
Adokwae,6.3602037,-1.5000041,255.0,1358.0,WorldPop_2020,village/town/hamlet,Richard Fowler Catholic Clinic,Clinic,6.4679724,-1.4723001,12.37,0.53,77.81851300001989,True,8,40.28,6.714017028571429,-1.578396487755102,True
Adom,5.6206732,-0.625298,59.0,967.0,WorldPop_2020,village/town/hamlet,Agnes Doris Pharmacy,Pharmacy,5.6388504,-0.7247921,11.19,0.81,67.35003441680566,True,7,41.0,5.636796764853556,-0.2551691866108785,True
Adom,7.4687328,-2.5983739,324.0,9859.0,WorldPop_2020,suburb,Dr. Larbi Clinic,Hospital,7.4438905,-2.5935659,2.81,0.63,141.55799126979932,False,12,57.26,6.964500993939394,-2.4931057818181817,True
Adomako,6.7407771,-2.501463,196.0,554.0,WorldPop_2020,village/town/hamlet,GLORIA K. TETTEH,Pharmacy,6.7896024,-2.5103712,5.52,0.82,61.82271768537158,True,12,24.89,6.964500993939394,-2.4931057818181817,True
Adomako Buoho,6.776963,-1.6501647,291.0,2650.0,WorldPop_2020,village/town/hamlet,ACP,Pharmacy,6.7756912,-1.6443116,0.66,0.81,42.397890500820765,True,8,10.57,6.714017028571429,-1.578396487755102,True
Adomakokrom,6.5693384,-2.3191528,193.0,204.0,WorldPop_2020,village/town/hamlet,Unnamed Clinic,Clinic,6.5297009,-2.4162856,11.6,0.61,46.577648605000206,True,12,47.95,6.964500993939394,-2.4931057818181817,True
Adomano,8.1162784,-1.556689,264.0,289.0,WorldPop_2020,village/town/hamlet,Kunsu chip compound,Clinic,8.1468817,-1.512622,5.93,0.81,118.93575943787842,True,1,59.28,7.707216,-1.9018804730769232,True
Adomanu,6.3030298,-1.6811107,218.0,910.0,WorldPop_2020,village/town/hamlet,D. B. Twumasi Chemicals OTC Medicine,Pharmacy,6.2132762,-1.6884994,10.01,0.81,89.30111590525517,True,8,47.09,6.714017028571429,-1.578396487755102,True
Adome,6.1391254,-0.0010099,109.0,8375.0,WorldPop_2020,village/town/hamlet,Unnamed Pharmacy,Pharmacy,6.14357,0.0083981,1.15,0.61,42.662717255337725,True,13,56.23,6.314441660273973,-0.4781223835616439,True
Adome,6.1458217,-0.1563755,136.0,338.0,WorldPop_2020,village/town/hamlet,EverCare Pharmacy,Pharmacy,6.1284523,-0.2123742,6.49,0.81,32.688095588626624,True,13,40.21,6.314441660273973,-0.4781223835616439,True
Adome,6.243668,0.11677,28.0,2897.0,WorldPop_2020,village/town/hamlet,Eric's Chemists,Pharmacy,6.2393408,0.0922965,2.75,0.81,27.544125185220302,True,4,61.32,6.159094553846154,0.6649345371794871,True
Adomfe,6.6665816,-1.0821491,261.0,3632.0,WorldPop_2020,village/town/hamlet,Unnamed Hospital,Hospital,6.6208128,-1.203852,14.37,0.33,54.44789292513335,True,8,55.06,6.714017028571429,-1.578396487755102,True
Adonai Estate,6.5899135,0.565759,95.0,672.0,WorldPop_2020,locality,Fountain Medical Services,Hospital,6.5959653,0.5180955,5.31,0.81,45.98893136718602,True,4,49.14,6.159094553846154,0.6649345371794871,True
Adontekurom,6.6317248,-0.9741978,224.0,638.0,WorldPop_2020,village/town/hamlet,Apradang Clinic,Hospital,6.5486346,-0.8663086,15.08,0.53,65.21336293299308,True,13,65.18,6.314441660273973,-0.4781223835616439,True
Adopekurom,6.8417503,-2.1072213,366.0,506.0,WorldPop_2020,village/town/hamlet,Anyinasuso Health Centre,Clinic,6.9590279,-2.100323,13.06,0.81,83.15351843784504,True,12,44.73,6.964500993939394,-2.4931057818181817,True
Adoteiman,5.7996655,-0.1561475,90.0,4859.0,WorldPop_2020,village/town/hamlet,Unnamed Pharmacy,Pharmacy,5.7912037,-0.157524,0.95,0.61,54.93377884048213,True,7,21.17,5.636796764853556,-0.2551691866108785,True
Adotsim,5.723913,-0.6414486,96.0,492.0,WorldPop_2020,village/town/hamlet,Essaso CHPS compound,Clinic,5.7645167,-0.6977078,7.69,0.81,57.19050874705152,True,7,43.83,5.636796764853556,-0.2551691866108785,True
Adoye (Adwee),7.8518822,-1.9446713,365.0,374.0,WorldPop_2020,village/town/hamlet,Anoma Health Center,Hospital,7.7836552,-1.8712659,11.09,0.53,107.64008291197642,True,1,16.76,7.707216,-1.9018804730769232,True
